time,x,y,z,roll,pitch,yaw,ref_x,ref_y,ref_z,F,tau_x,tau_y,tau_z,dt,latency_us
0.000000,0.000000,0.000000,0.000000,0.000000,0.000000,0.000000,0.000000,0.000000,3.000000,12.810000,0.000000,-0.000000,0.000000,0.004000,0.000000
0.004095,0.000000,0.000000,0.000000,0.000000,0.000000,0.000000,0.000000,0.000000,3.000000,12.791573,0.000000,-0.000000,0.000000,0.004095,95.347000
0.008065,0.000000,0.000000,0.000049,0.000000,0.000000,0.000000,0.000000,0.000000,3.000000,12.773769,0.000000,-0.000000,0.000000,0.003970,65.212000
0.012098,0.000000,0.000000,0.000146,0.000000,0.000000,0.000000,0.000000,0.000000,3.000000,12.755745,0.000000,-0.000000,0.000000,0.004032,97.688000
0.016101,0.000000,0.000000,0.000290,0.000000,0.000000,0.000000,0.000000,0.000000,3.000000,12.737912,0.000000,-0.000000,0.000000,0.004003,100.887000
0.020082,0.000000,0.000000,0.000481,0.000000,0.000000,0.000000,0.000000,0.000000,3.000000,12.720239,0.000000,-0.000000,0.000000,0.003981,81.752000
0.024181,0.000000,0.000000,0.000725,0.000000,0.000000,0.000000,0.000000,0.000000,3.000000,12.702101,0.000000,-0.000000,0.000000,0.004099,180.617000
0.028066,0.000000,0.000000,0.001003,0.000000,0.000000,0.000000,0.000000,0.000000,3.000000,12.684967,0.000000,-0.000000,0.000000,0.003886,66.334000
0.032071,0.000000,0.000000,0.001334,0.000000,0.000000,0.000000,0.000000,0.000000,3.000000,12.667366,0.000000,-0.000000,0.000000,0.004005,70.866000
0.036076,0.000000,0.000000,0.001711,0.000000,0.000000,0.000000,0.000000,0.000000,3.000000,12.649822,0.000000,-0.000000,0.000000,0.004005,76.249000
0.040065,0.000000,0.000000,0.002132,0.000000,0.000000,0.000000,0.000000,0.000000,3.000000,12.632411,0.000000,-0.000000,0.000000,0.003988,64.670000
0.044075,0.000000,0.000000,0.002601,0.000000,0.000000,0.000000,0.000000,0.000000,3.000000,12.614964,0.000000,-0.000000,0.000000,0.004010,74.757000
0.048068,0.000000,0.000000,0.003114,0.000000,0.000000,0.000000,0.000000,0.000000,3.000000,12.597650,0.000000,-0.000000,0.000000,0.003994,68.326000
0.052061,0.000000,0.000000,0.003671,0.000000,0.000000,0.000000,0.000000,0.000000,3.000000,12.580397,0.000000,-0.000000,0.000000,0.003993,61.284000
0.056060,0.000000,0.000000,0.004273,0.000000,0.000000,0.000000,0.000000,0.000000,3.000000,12.563177,0.000000,-0.000000,0.000000,0.003999,59.871000
0.060059,0.000000,0.000000,0.004920,0.000000,0.000000,0.000000,0.000000,0.000000,3.000000,12.546017,0.000000,-0.000000,0.000000,0.003999,58.570000
0.064073,0.000000,0.000000,0.005613,0.000000,0.000000,0.000000,0.000000,0.000000,3.000000,12.528848,0.000000,-0.000000,0.000000,0.004015,73.176000
0.068060,0.000000,0.000000,0.006345,0.000000,0.000000,0.000000,0.000000,0.000000,3.000000,12.511857,0.000000,-0.000000,0.000000,0.003987,59.763000
0.072058,0.000000,0.000000,0.007123,0.000000,0.000000,0.000000,0.000000,0.000000,3.000000,12.494874,0.000000,-0.000000,0.000000,0.003998,58.221000
0.076063,0.000000,0.000000,0.007945,0.000000,0.000000,0.000000,0.000000,0.000000,3.000000,12.477925,0.000000,-0.000000,0.000000,0.004004,62.623000
0.080060,0.000000,0.000000,0.008809,0.000000,0.000000,0.000000,0.000000,0.000000,3.000000,12.461065,0.000000,-0.000000,0.000000,0.003997,59.636000
0.084060,0.000000,0.000000,0.009716,0.000000,0.000000,0.000000,0.000000,0.000000,3.000000,12.444253,0.000000,-0.000000,0.000000,0.004000,59.520000
0.088059,0.000000,0.000000,0.010665,0.000000,0.000000,0.000000,0.000000,0.000000,3.000000,12.427502,0.000000,-0.000000,0.000000,0.003999,58.515000
0.092059,0.000000,0.000000,0.011657,0.000000,0.000000,0.000000,0.000000,0.000000,3.000000,12.410806,0.000000,-0.000000,0.000000,0.004000,58.528000
0.096062,0.000000,0.000000,0.012691,0.000000,0.000000,0.000000,0.000000,0.000000,3.000000,12.394154,0.000000,-0.000000,0.000000,0.004003,61.652000
0.100060,0.000000,0.000000,0.013766,0.000000,0.000000,0.000000,0.000000,0.000000,3.000000,12.377582,0.000000,-0.000000,0.000000,0.003998,59.851000
0.104059,0.000000,0.000000,0.014882,0.000000,0.000000,0.000000,0.000000,0.000000,3.000000,12.361065,0.000000,-0.000000,0.000000,0.003999,58.753000
0.108059,0.000000,0.000000,0.016039,0.000000,0.000000,0.000000,0.000000,0.000000,3.000000,12.344600,0.000000,-0.000000,0.000000,0.004000,58.877000
0.112058,0.000000,0.000000,0.017237,0.000000,0.000000,0.000000,0.000000,0.000000,3.000000,12.328196,0.000000,-0.000000,0.000000,0.004000,58.483000
0.116059,0.000000,0.000000,0.018476,0.000000,0.000000,0.000000,0.000000,0.000000,3.000000,12.311848,0.000000,-0.000000,0.000000,0.004000,58.515000
0.120068,0.000000,0.000000,0.019759,0.000000,0.000000,0.000000,0.000000,0.000000,3.000000,12.295518,0.000000,-0.000000,0.000000,0.004010,68.251000
0.124059,0.000000,0.000000,0.021075,0.000000,0.000000,0.000000,0.000000,0.000000,3.000000,12.279322,0.000000,-0.000000,0.000000,0.003991,59.412000
0.128059,0.000000,0.000000,0.022434,0.000000,0.000000,0.000000,0.000000,0.000000,3.000000,12.263149,0.000000,-0.000000,0.000000,0.003999,58.666000
0.132066,0.000000,0.000000,0.023835,0.000000,0.000000,0.000000,0.000000,0.000000,3.000000,12.247001,0.000000,-0.000000,0.000000,0.004008,66.365000
0.136059,0.000000,0.000000,0.025270,0.000000,0.000000,0.000000,0.000000,0.000000,3.000000,12.230972,0.000000,-0.000000,0.000000,0.003992,58.526000
0.140058,0.000000,0.000000,0.026746,0.000000,0.000000,0.000000,0.000000,0.000000,3.000000,12.214971,0.000000,-0.000000,0.000000,0.004000,58.336000
0.144058,0.000000,0.000000,0.028262,0.000000,0.000000,0.000000,0.000000,0.000000,3.000000,12.199026,0.000000,-0.000000,0.000000,0.004000,58.164000
0.148058,0.000000,0.000000,0.029816,0.000000,0.000000,0.000000,0.000000,0.000000,3.000000,12.183138,0.000000,-0.000000,0.000000,0.004000,58.270000
0.152059,0.000000,0.000000,0.031408,0.000000,0.000000,0.000000,0.000000,0.000000,3.000000,12.167305,0.000000,-0.000000,0.000000,0.004001,58.857000
0.156058,0.000000,0.000000,0.033038,0.000000,0.000000,0.000000,0.000000,0.000000,3.000000,12.151532,0.000000,-0.000000,0.000000,0.004000,58.407000
0.160058,0.000000,0.000000,0.034706,0.000000,0.000000,0.000000,0.000000,0.000000,3.000000,12.135815,0.000000,-0.000000,0.000000,0.004000,58.476000
0.164058,0.000000,0.000000,0.036411,0.000000,0.000000,0.000000,0.000000,0.000000,3.000000,12.120155,0.000000,-0.000000,0.000000,0.004000,58.341000
0.168059,0.000000,0.000000,0.038154,0.000000,0.000000,0.000000,0.000000,0.000000,3.000000,12.104550,0.000000,-0.000000,0.000000,0.004000,58.669000
0.172059,0.000000,0.000000,0.039933,0.000000,0.000000,0.000000,0.000000,0.000000,3.000000,12.089001,0.000000,-0.000000,0.000000,0.004001,59.386000
0.176059,0.000000,0.000000,0.041749,0.000000,0.000000,0.000000,0.000000,0.000000,3.000000,12.073513,0.000000,-0.000000,0.000000,0.004000,58.918000
0.180061,0.000000,0.000000,0.043603,0.000000,0.000000,0.000000,0.000000,0.000000,3.000000,12.058069,0.000000,-0.000000,0.000000,0.004002,61.376000
0.184059,0.000000,0.000000,0.045491,0.000000,0.000000,0.000000,0.000000,0.000000,3.000000,12.042700,0.000000,-0.000000,0.000000,0.003998,59.445000
0.188065,0.000000,0.000000,0.047418,0.000000,0.000000,0.000000,0.000000,0.000000,3.000000,12.027359,0.000000,-0.000000,0.000000,0.004005,64.551000
0.192065,0.000000,0.000000,0.049379,0.000000,0.000000,0.000000,0.000000,0.000000,3.000000,12.012094,0.000000,-0.000000,0.000000,0.004000,64.656000
0.196058,0.000000,0.000000,0.051372,0.000000,0.000000,0.000000,0.000000,0.000000,3.000000,11.996911,0.000000,-0.000000,0.000000,0.003993,57.873000
0.200088,0.000000,0.000000,0.053418,0.000000,0.000000,0.000000,0.000000,0.000000,3.000000,11.981646,0.000000,-0.000000,0.000000,0.004030,87.665000
0.204059,0.000000,0.000000,0.055470,0.000000,0.000000,0.000000,0.000000,0.000000,3.000000,11.966658,0.000000,-0.000000,0.000000,0.003971,59.141000
0.208059,0.000000,0.000000,0.057571,0.000000,0.000000,0.000000,0.000000,0.000000,3.000000,11.951617,0.000000,-0.000000,0.000000,0.004000,58.876000
0.212059,0.000000,0.000000,0.059706,0.000000,0.000000,0.000000,0.000000,0.000000,3.000000,11.936630,0.000000,-0.000000,0.000000,0.004000,59.353000
0.216059,0.000000,0.000000,0.061876,0.000000,0.000000,0.000000,0.000000,0.000000,3.000000,11.921703,0.000000,-0.000000,0.000000,0.003999,58.773000
0.220059,0.000000,0.000000,0.064080,0.000000,0.000000,0.000000,0.000000,0.000000,3.000000,11.906828,0.000000,-0.000000,0.000000,0.004000,58.898000
0.224058,0.000000,0.000000,0.066317,0.000000,0.000000,0.000000,0.000000,0.000000,3.000000,11.892013,0.000000,-0.000000,0.000000,0.003999,58.207000
0.228058,0.000000,0.000000,0.068588,0.000000,0.000000,0.000000,0.000000,0.000000,3.000000,11.877249,0.000000,-0.000000,0.000000,0.004000,58.461000
0.232058,0.000000,0.000000,0.070893,0.000000,0.000000,0.000000,0.000000,0.000000,3.000000,11.862540,0.000000,-0.000000,0.000000,0.004000,58.400000
0.236058,0.000000,0.000000,0.073230,0.000000,0.000000,0.000000,0.000000,0.000000,3.000000,11.847887,0.000000,-0.000000,0.000000,0.004000,58.488000
0.240058,0.000000,0.000000,0.075600,0.000000,0.000000,0.000000,0.000000,0.000000,3.000000,11.833290,0.000000,-0.000000,0.000000,0.004000,58.446000
0.244058,0.000000,0.000000,0.078003,0.000000,0.000000,0.000000,0.000000,0.000000,3.000000,11.818748,0.000000,-0.000000,0.000000,0.004000,58.181000
0.248058,0.000000,0.000000,0.080439,0.000000,0.000000,0.000000,0.000000,0.000000,3.000000,11.804259,0.000000,-0.000000,0.000000,0.004000,58.398000
0.252059,0.000000,0.000000,0.082906,0.000000,0.000000,0.000000,0.000000,0.000000,3.000000,11.789825,0.000000,-0.000000,0.000000,0.004000,58.615000
0.256060,0.000000,0.000000,0.085407,0.000000,0.000000,0.000000,0.000000,0.000000,3.000000,11.775441,0.000000,-0.000000,0.000000,0.004002,60.295000
0.260060,0.000000,0.000000,0.087938,0.000000,0.000000,0.000000,0.000000,0.000000,3.000000,11.761119,0.000000,-0.000000,0.000000,0.004000,60.012000
0.264062,0.000000,0.000000,0.090502,0.000000,0.000000,0.000000,0.000000,0.000000,3.000000,11.746841,0.000000,-0.000000,0.000000,0.004002,62.229000
0.268065,0.000000,0.000000,0.093097,0.000000,0.000000,0.000000,0.000000,0.000000,3.000000,11.732618,0.000000,-0.000000,0.000000,0.004002,64.687000
0.272059,0.000000,0.000000,0.095718,0.000000,0.000000,0.000000,0.000000,0.000000,3.000000,11.718475,0.000000,-0.000000,0.000000,0.003995,59.459000
0.276059,0.000000,0.000000,0.098373,0.000000,0.000000,0.000000,0.000000,0.000000,3.000000,11.704372,0.000000,-0.000000,0.000000,0.003999,58.602000
0.280058,0.000000,0.000000,0.101059,0.000000,0.000000,0.000000,0.000000,0.000000,3.000000,11.690321,0.000000,-0.000000,0.000000,0.004000,58.393000
0.284059,0.000000,0.000000,0.103776,0.000000,0.000000,0.000000,0.000000,0.000000,3.000000,11.676322,0.000000,-0.000000,0.000000,0.004000,58.536000
0.288059,0.000000,0.000000,0.106522,0.000000,0.000000,0.000000,0.000000,0.000000,3.000000,11.662378,0.000000,-0.000000,0.000000,0.004000,58.568000
0.292058,0.000000,0.000000,0.109298,0.000000,0.000000,0.000000,0.000000,0.000000,3.000000,11.648487,0.000000,-0.000000,0.000000,0.004000,58.470000
0.296059,0.000000,0.000000,0.112104,0.000000,0.000000,0.000000,0.000000,0.000000,3.000000,11.634649,0.000000,-0.000000,0.000000,0.004000,58.761000
0.300059,0.000000,0.000000,0.114940,0.000000,0.000000,0.000000,0.000000,0.000000,3.000000,11.620865,0.000000,-0.000000,0.000000,0.004001,59.423000
0.304059,0.000000,0.000000,0.117804,0.000000,0.000000,0.000000,0.000000,0.000000,3.000000,11.607137,0.000000,-0.000000,0.000000,0.003999,58.880000
0.308058,0.000000,0.000000,0.120697,0.000000,0.000000,0.000000,0.000000,0.000000,3.000000,11.593462,0.000000,-0.000000,0.000000,0.003999,58.320000
0.312058,0.000000,0.000000,0.123620,0.000000,0.000000,0.000000,0.000000,0.000000,3.000000,11.579839,0.000000,-0.000000,0.000000,0.004000,58.388000
0.316058,0.000000,0.000000,0.126570,0.000000,0.000000,0.000000,0.000000,0.000000,3.000000,11.566270,0.000000,-0.000000,0.000000,0.004000,58.216000
0.320068,0.000000,0.000000,0.129556,0.000000,0.000000,0.000000,0.000000,0.000000,3.000000,11.552720,0.000000,-0.000000,0.000000,0.004010,67.859000
0.324178,0.000000,0.000000,0.132647,0.000000,0.000000,0.000000,0.000000,0.000000,3.000000,11.538885,0.000000,-0.000000,0.000000,0.004110,178.280000
0.328061,0.000000,0.000000,0.135594,0.000000,0.000000,0.000000,0.000000,0.000000,3.000000,11.525867,0.000000,-0.000000,0.000000,0.003883,61.349000
0.332074,0.000000,0.000000,0.138666,0.000000,0.000000,0.000000,0.000000,0.000000,3.000000,11.512467,0.000000,-0.000000,0.000000,0.004013,74.140000
0.336058,0.000000,0.000000,0.141745,0.000000,0.000000,0.000000,0.000000,0.000000,3.000000,11.499214,0.000000,-0.000000,0.000000,0.003984,58.375000
0.340058,0.000000,0.000000,0.144862,0.000000,0.000000,0.000000,0.000000,0.000000,3.000000,11.485962,0.000000,-0.000000,0.000000,0.004000,58.333000
0.344060,0.000000,0.000000,0.148008,0.000000,0.000000,0.000000,0.000000,0.000000,3.000000,11.472755,0.000000,-0.000000,0.000000,0.004002,60.217000
0.348058,0.000000,0.000000,0.151178,0.000000,0.000000,0.000000,0.000000,0.000000,3.000000,11.459614,0.000000,-0.000000,0.000000,0.003998,58.267000
0.352059,0.000000,0.000000,0.154376,0.000000,0.000000,0.000000,0.000000,0.000000,3.000000,11.446516,0.000000,-0.000000,0.000000,0.004001,59.169000
0.356059,0.000000,0.000000,0.157600,0.000000,0.000000,0.000000,0.000000,0.000000,3.000000,11.433474,0.000000,-0.000000,0.000000,0.004000,58.701000
0.360058,0.000000,0.000000,0.160851,0.000000,0.000000,0.000000,0.000000,0.000000,3.000000,11.420483,0.000000,-0.000000,0.000000,0.004000,58.474000
0.364058,0.000000,0.000000,0.164127,0.000000,0.000000,0.000000,0.000000,0.000000,3.000000,11.407544,0.000000,-0.000000,0.000000,0.004000,58.357000
0.368058,0.000000,0.000000,0.167429,0.000000,0.000000,0.000000,0.000000,0.000000,3.000000,11.394656,0.000000,-0.000000,0.000000,0.004000,58.408000
0.372059,0.000000,0.000000,0.170757,0.000000,0.000000,0.000000,0.000000,0.000000,3.000000,11.381821,0.000000,-0.000000,0.000000,0.004000,58.514000
0.376059,0.000000,0.000000,0.174110,0.000000,0.000000,0.000000,0.000000,0.000000,3.000000,11.369036,0.000000,-0.000000,0.000000,0.004000,58.731000
0.380058,0.000000,0.000000,0.177488,0.000000,0.000000,0.000000,0.000000,0.000000,3.000000,11.356305,0.000000,-0.000000,0.000000,0.003999,58.207000
0.384058,0.000000,0.000000,0.180891,0.000000,0.000000,0.000000,0.000000,0.000000,3.000000,11.343624,0.000000,-0.000000,0.000000,0.004000,58.146000
0.388059,0.000000,0.000000,0.184320,0.000000,0.000000,0.000000,0.000000,0.000000,3.000000,11.330991,0.000000,-0.000000,0.000000,0.004001,59.122000
0.392060,0.000000,0.000000,0.187773,0.000000,0.000000,0.000000,0.000000,0.000000,3.000000,11.318412,0.000000,-0.000000,0.000000,0.004000,59.562000
0.396071,0.000000,0.000000,0.191260,0.000000,0.000000,0.000000,0.000000,0.000000,3.000000,11.305847,0.000000,-0.000000,0.000000,0.004012,71.242000
0.400065,0.000000,0.000000,0.194755,0.000000,0.000000,0.000000,0.000000,0.000000,3.000000,11.293392,0.000000,-0.000000,0.000000,0.003994,64.755000
0.404059,0.000000,0.000000,0.198275,0.000000,0.000000,0.000000,0.000000,0.000000,3.000000,11.280984,0.000000,-0.000000,0.000000,0.003994,59.212000
0.408058,0.000000,0.000000,0.201823,0.000000,0.000000,0.000000,0.000000,0.000000,3.000000,11.268611,0.000000,-0.000000,0.000000,0.003999,58.448000
0.412058,0.000000,0.000000,0.205395,0.000000,0.000000,0.000000,0.000000,0.000000,3.000000,11.256289,0.000000,-0.000000,0.000000,0.004000,58.276000
0.416058,0.000000,0.000000,0.208991,0.000000,0.000000,0.000000,0.000000,0.000000,3.000000,11.244015,0.000000,-0.000000,0.000000,0.004000,58.178000
0.420065,0.000000,0.000000,0.212616,0.000000,0.000000,0.000000,0.000000,0.000000,3.000000,11.231772,0.000000,-0.000000,0.000000,0.004007,64.821000
0.424061,0.000000,0.000000,0.216254,0.000000,0.000000,0.000000,0.000000,0.000000,3.000000,11.219612,0.000000,-0.000000,0.000000,0.003996,60.853000
0.428059,0.000000,0.000000,0.219916,0.000000,0.000000,0.000000,0.000000,0.000000,3.000000,11.207496,0.000000,-0.000000,0.000000,0.003998,58.811000
0.432059,0.000000,0.000000,0.223603,0.000000,0.000000,0.000000,0.000000,0.000000,3.000000,11.195425,0.000000,-0.000000,0.000000,0.004000,58.528000
0.436058,0.000000,0.000000,0.227312,0.000000,0.000000,0.000000,0.000000,0.000000,3.000000,11.183404,0.000000,-0.000000,0.000000,0.004000,58.374000
0.440058,0.000000,0.000000,0.231043,0.000000,0.000000,0.000000,0.000000,0.000000,3.000000,11.171432,0.000000,-0.000000,0.000000,0.004000,58.332000
0.444059,0.000000,0.000000,0.234797,0.000000,0.000000,0.000000,0.000000,0.000000,3.000000,11.159507,0.000000,-0.000000,0.000000,0.004001,59.327000
0.448058,0.000000,0.000000,0.238572,0.000000,0.000000,0.000000,0.000000,0.000000,3.000000,11.147637,0.000000,-0.000000,0.000000,0.003999,58.414000
0.452072,0.000000,0.000000,0.242381,0.000000,0.000000,0.000000,0.000000,0.000000,3.000000,11.135777,0.000000,-0.000000,0.000000,0.004013,71.502000
0.456059,0.000000,0.000000,0.246188,0.000000,0.000000,0.000000,0.000000,0.000000,3.000000,11.124039,0.000000,-0.000000,0.000000,0.003988,59.256000
0.460060,0.000000,0.000000,0.250028,0.000000,0.000000,0.000000,0.000000,0.000000,3.000000,11.112313,0.000000,-0.000000,0.000000,0.004001,59.973000
0.464077,0.000000,0.000000,0.253905,0.000000,0.000000,0.000000,0.000000,0.000000,3.000000,11.100589,0.000000,-0.000000,0.000000,0.004017,77.227000
0.468059,0.000000,0.000000,0.257768,0.000000,0.000000,0.000000,0.000000,0.000000,3.000000,11.089018,0.000000,-0.000000,0.000000,0.003981,58.684000
0.472058,0.000000,0.000000,0.261670,0.000000,0.000000,0.000000,0.000000,0.000000,3.000000,11.077443,0.000000,-0.000000,0.000000,0.004000,58.253000
0.476060,0.000000,0.000000,0.265594,0.000000,0.000000,0.000000,0.000000,0.000000,3.000000,11.065911,0.000000,-0.000000,0.000000,0.004002,59.952000
0.480059,0.000000,0.000000,0.269535,0.000000,0.000000,0.000000,0.000000,0.000000,3.000000,11.054437,0.000000,-0.000000,0.000000,0.003999,58.835000
0.484059,0.000000,0.000000,0.273498,0.000000,0.000000,0.000000,0.000000,0.000000,3.000000,11.043008,0.000000,-0.000000,0.000000,0.004000,58.608000
0.488059,0.000000,0.000000,0.277480,0.000000,0.000000,0.000000,0.000000,0.000000,3.000000,11.031627,0.000000,-0.000000,0.000000,0.004000,58.732000
0.492058,0.000000,0.000000,0.281482,0.000000,0.000000,0.000000,0.000000,0.000000,3.000000,11.020296,0.000000,-0.000000,0.000000,0.004000,58.301000
0.496059,0.000000,0.000000,0.285505,0.000000,0.000000,0.000000,0.000000,0.000000,3.000000,11.009010,0.000000,-0.000000,0.000000,0.004000,58.796000
0.500059,0.000000,0.000000,0.289546,0.000000,0.000000,0.000000,0.000000,0.000000,3.000000,10.997775,0.000000,-0.000000,0.000000,0.004000,58.661000
0.504059,0.000000,0.000000,0.293606,0.000000,0.000000,0.000000,0.000000,0.000000,3.000000,10.986588,0.000000,-0.000000,0.000000,0.004000,58.563000
0.508058,0.000000,0.000000,0.297686,0.000000,0.000000,0.000000,0.000000,0.000000,3.000000,10.975451,0.000000,-0.000000,0.000000,0.004000,58.243000
0.512079,0.000000,0.000000,0.301805,0.000000,0.000000,0.000000,0.000000,0.000000,3.000000,10.964302,0.000000,-0.000000,0.000000,0.004021,78.849000
0.516062,0.000000,0.000000,0.305905,0.000000,0.000000,0.000000,0.000000,0.000000,3.000000,10.953305,0.000000,-0.000000,0.000000,0.003983,62.159000
0.520064,0.000000,0.000000,0.310042,0.000000,0.000000,0.000000,0.000000,0.000000,3.000000,10.942307,0.000000,-0.000000,0.000000,0.004001,63.579000
0.524070,0.000000,0.000000,0.314202,0.000000,0.000000,0.000000,0.000000,0.000000,3.000000,10.931341,0.000000,-0.000000,0.000000,0.004006,69.833000
0.528064,0.000000,0.000000,0.318368,0.000000,0.000000,0.000000,0.000000,0.000000,3.000000,10.920457,0.000000,-0.000000,0.000000,0.003994,64.161000
0.532064,0.000000,0.000000,0.322558,0.000000,0.000000,0.000000,0.000000,0.000000,3.000000,10.909605,0.000000,-0.000000,0.000000,0.004000,63.990000
0.536058,0.000000,0.000000,0.326759,0.000000,0.000000,0.000000,0.000000,0.000000,3.000000,10.898815,0.000000,-0.000000,0.000000,0.003994,58.207000
0.540058,0.000000,0.000000,0.330984,0.000000,0.000000,0.000000,0.000000,0.000000,3.000000,10.888058,0.000000,-0.000000,0.000000,0.004000,58.386000
0.544059,0.000000,0.000000,0.335228,0.000000,0.000000,0.000000,0.000000,0.000000,3.000000,10.877345,0.000000,-0.000000,0.000000,0.004001,58.955000
0.548059,0.000000,0.000000,0.339488,0.000000,0.000000,0.000000,0.000000,0.000000,3.000000,10.866680,0.000000,-0.000000,0.000000,0.004000,59.228000
0.552059,0.000000,0.000000,0.343765,0.000000,0.000000,0.000000,0.000000,0.000000,3.000000,10.856062,0.000000,-0.000000,0.000000,0.004000,59.482000
0.556059,0.000000,0.000000,0.348058,0.000000,0.000000,0.000000,0.000000,0.000000,3.000000,10.845494,0.000000,-0.000000,0.000000,0.003999,58.569000
0.560059,0.000000,0.000000,0.352368,0.000000,0.000000,0.000000,0.000000,0.000000,3.000000,10.834971,0.000000,-0.000000,0.000000,0.004000,58.527000
0.564059,0.000000,0.000000,0.356696,0.000000,0.000000,0.000000,0.000000,0.000000,3.000000,10.824492,0.000000,-0.000000,0.000000,0.004001,59.077000
0.568059,0.000000,0.000000,0.361039,0.000000,0.000000,0.000000,0.000000,0.000000,3.000000,10.814063,0.000000,-0.000000,0.000000,0.004000,58.924000
0.572059,0.000000,0.000000,0.365398,0.000000,0.000000,0.000000,0.000000,0.000000,3.000000,10.803679,0.000000,-0.000000,0.000000,0.004000,58.585000
0.576058,0.000000,0.000000,0.369774,0.000000,0.000000,0.000000,0.000000,0.000000,3.000000,10.793343,0.000000,-0.000000,0.000000,0.004000,58.376000
0.580068,0.000000,0.000000,0.374176,0.000000,0.000000,0.000000,0.000000,0.000000,3.000000,10.783026,0.000000,-0.000000,0.000000,0.004010,67.890000
0.584060,0.000000,0.000000,0.378575,0.000000,0.000000,0.000000,0.000000,0.000000,3.000000,10.772799,0.000000,-0.000000,0.000000,0.003993,60.403000
0.588060,0.000000,0.000000,0.382998,0.000000,0.000000,0.000000,0.000000,0.000000,3.000000,10.762600,0.000000,-0.000000,0.000000,0.004000,60.416000
0.592058,0.000000,0.000000,0.387434,0.000000,0.000000,0.000000,0.000000,0.000000,3.000000,10.752451,0.000000,-0.000000,0.000000,0.003998,58.207000
0.596073,0.000000,0.000000,0.391905,0.000000,0.000000,0.000000,0.000000,0.000000,3.000000,10.742305,0.000000,-0.000000,0.000000,0.004015,73.424000
0.600065,0.000000,0.000000,0.396364,0.000000,0.000000,0.000000,0.000000,0.000000,3.000000,10.732264,0.000000,-0.000000,0.000000,0.003991,64.771000
0.604059,0.000000,0.000000,0.400842,0.000000,0.000000,0.000000,0.000000,0.000000,3.000000,10.722260,0.000000,-0.000000,0.000000,0.003995,59.358000
0.608058,0.000000,0.000000,0.405339,0.000000,0.000000,0.000000,0.000000,0.000000,3.000000,10.712291,0.000000,-0.000000,0.000000,0.003999,58.223000
0.612058,0.000000,0.000000,0.409852,0.000000,0.000000,0.000000,0.000000,0.000000,3.000000,10.702365,0.000000,-0.000000,0.000000,0.004000,58.107000
0.616058,0.000000,0.000000,0.414379,0.000000,0.000000,0.000000,0.000000,0.000000,3.000000,10.692482,0.000000,-0.000000,0.000000,0.004000,58.435000
0.620058,0.000000,0.000000,0.418921,0.000000,0.000000,0.000000,0.000000,0.000000,3.000000,10.682646,0.000000,-0.000000,0.000000,0.004000,58.393000
0.624058,0.000000,0.000000,0.423477,0.000000,0.000000,0.000000,0.000000,0.000000,3.000000,10.672854,0.000000,-0.000000,0.000000,0.004000,58.221000
0.628058,0.000000,0.000000,0.428047,0.000000,0.000000,0.000000,0.000000,0.000000,3.000000,10.663107,0.000000,-0.000000,0.000000,0.004000,58.494000
0.632058,0.000000,0.000000,0.432630,0.000000,0.000000,0.000000,0.000000,0.000000,3.000000,10.653405,0.000000,-0.000000,0.000000,0.004000,58.248000
0.636058,0.000000,0.000000,0.437227,0.000000,0.000000,0.000000,0.000000,0.000000,3.000000,10.643747,0.000000,-0.000000,0.000000,0.004000,58.205000
0.640058,0.000000,0.000000,0.441838,0.000000,0.000000,0.000000,0.000000,0.000000,3.000000,10.634133,0.000000,-0.000000,0.000000,0.004000,58.367000
0.644058,0.000000,0.000000,0.446462,0.000000,0.000000,0.000000,0.000000,0.000000,3.000000,10.624565,0.000000,-0.000000,0.000000,0.004000,58.139000
0.648059,0.000000,0.000000,0.451100,0.000000,0.000000,0.000000,0.000000,0.000000,3.000000,10.615040,0.000000,-0.000000,0.000000,0.004000,58.597000
0.652078,0.000000,0.000000,0.455772,0.000000,0.000000,0.000000,0.000000,0.000000,3.000000,10.605514,0.000000,-0.000000,0.000000,0.004019,77.722000
0.656060,0.000000,0.000000,0.460415,0.000000,0.000000,0.000000,0.000000,0.000000,3.000000,10.596119,0.000000,-0.000000,0.000000,0.003982,59.938000
0.660059,0.000000,0.000000,0.465090,0.000000,0.000000,0.000000,0.000000,0.000000,3.000000,10.586729,0.000000,-0.000000,0.000000,0.003999,58.933000
0.664059,0.000000,0.000000,0.469778,0.000000,0.000000,0.000000,0.000000,0.000000,3.000000,10.577380,0.000000,-0.000000,0.000000,0.004000,58.928000
0.668059,0.000000,0.000000,0.474479,0.000000,0.000000,0.000000,0.000000,0.000000,3.000000,10.568074,0.000000,-0.000000,0.000000,0.004000,59.201000
0.672058,0.000000,0.000000,0.479191,0.000000,0.000000,0.000000,0.000000,0.000000,3.000000,10.558815,0.000000,-0.000000,0.000000,0.003999,58.306000
0.676058,0.000000,0.000000,0.483916,0.000000,0.000000,0.000000,0.000000,0.000000,3.000000,10.549597,0.000000,-0.000000,0.000000,0.004000,58.098000
0.680066,0.000000,0.000000,0.488663,0.000000,0.000000,0.000000,0.000000,0.000000,3.000000,10.540403,0.000000,-0.000000,0.000000,0.004008,66.222000
0.684059,0.000000,0.000000,0.493404,0.000000,0.000000,0.000000,0.000000,0.000000,3.000000,10.531288,0.000000,-0.000000,0.000000,0.003993,58.957000
0.688059,0.000000,0.000000,0.498165,0.000000,0.000000,0.000000,0.000000,0.000000,3.000000,10.522201,0.000000,-0.000000,0.000000,0.004000,58.767000
0.692059,0.000000,0.000000,0.502937,0.000000,0.000000,0.000000,0.000000,0.000000,3.000000,10.513155,0.000000,-0.000000,0.000000,0.004000,58.817000
0.696059,0.000000,0.000000,0.507721,0.000000,0.000000,0.000000,0.000000,0.000000,3.000000,10.504152,0.000000,-0.000000,0.000000,0.004000,58.701000
0.700054,0.000000,0.000000,0.512510,0.000000,0.000000,0.000000,0.000000,0.000000,3.000000,10.495203,0.000000,-0.000000,0.000000,0.003995,53.936000
0.704059,0.000000,0.000000,0.517322,0.000000,0.000000,0.000000,0.000000,0.000000,3.000000,10.486275,0.000000,-0.000000,0.000000,0.004005,58.765000
0.708059,0.000000,0.000000,0.522139,0.000000,0.000000,0.000000,0.000000,0.000000,3.000000,10.477401,0.000000,-0.000000,0.000000,0.004000,58.741000
0.712060,0.000000,0.000000,0.526968,0.000000,0.000000,0.000000,0.000000,0.000000,3.000000,10.468567,0.000000,-0.000000,0.000000,0.004001,59.662000
0.716060,0.000000,0.000000,0.531806,0.000000,0.000000,0.000000,0.000000,0.000000,3.000000,10.459777,0.000000,-0.000000,0.000000,0.004000,59.582000
0.720063,0.000000,0.000000,0.536659,0.000000,0.000000,0.000000,0.000000,0.000000,3.000000,10.451022,0.000000,-0.000000,0.000000,0.004003,62.521000
0.724060,0.000000,0.000000,0.541515,0.000000,0.000000,0.000000,0.000000,0.000000,3.000000,10.442323,0.000000,-0.000000,0.000000,0.003997,59.813000
0.728059,0.000000,0.000000,0.546385,0.000000,0.000000,0.000000,0.000000,0.000000,3.000000,10.433660,0.000000,-0.000000,0.000000,0.004000,59.474000
0.732060,0.000000,0.000000,0.551266,0.000000,0.000000,0.000000,0.000000,0.000000,3.000000,10.425035,0.000000,-0.000000,0.000000,0.004001,60.469000
0.736058,0.000000,0.000000,0.556153,0.000000,0.000000,0.000000,0.000000,0.000000,3.000000,10.416461,0.000000,-0.000000,0.000000,0.003998,58.130000
0.740058,0.000000,0.000000,0.561052,0.000000,0.000000,0.000000,0.000000,0.000000,3.000000,10.407922,0.000000,-0.000000,0.000000,0.004000,58.218000
0.744058,0.000000,0.000000,0.565962,0.000000,0.000000,0.000000,0.000000,0.000000,3.000000,10.399426,0.000000,-0.000000,0.000000,0.004000,58.194000
0.748058,0.000000,0.000000,0.570881,0.000000,0.000000,0.000000,0.000000,0.000000,3.000000,10.390969,0.000000,-0.000000,0.000000,0.004000,58.226000
0.752060,0.000000,0.000000,0.575811,0.000000,0.000000,0.000000,0.000000,0.000000,3.000000,10.382552,0.000000,-0.000000,0.000000,0.004001,59.609000
0.756059,0.000000,0.000000,0.580747,0.000000,0.000000,0.000000,0.000000,0.000000,3.000000,10.374182,0.000000,-0.000000,0.000000,0.003999,58.567000
0.760058,0.000000,0.000000,0.585694,0.000000,0.000000,0.000000,0.000000,0.000000,3.000000,10.365850,0.000000,-0.000000,0.000000,0.004000,58.377000
0.764058,0.000000,0.000000,0.590650,0.000000,0.000000,0.000000,0.000000,0.000000,3.000000,10.357559,0.000000,-0.000000,0.000000,0.004000,58.408000
0.768059,0.000000,0.000000,0.595615,0.000000,0.000000,0.000000,0.000000,0.000000,3.000000,10.349308,0.000000,-0.000000,0.000000,0.004001,58.922000
0.772058,0.000000,0.000000,0.600588,0.000000,0.000000,0.000000,0.000000,0.000000,3.000000,10.341100,0.000000,-0.000000,0.000000,0.003999,58.379000
0.776059,0.000000,0.000000,0.605571,0.000000,0.000000,0.000000,0.000000,0.000000,3.000000,10.332930,0.000000,-0.000000,0.000000,0.004001,59.078000
0.780071,0.000000,0.000000,0.610577,0.000000,0.000000,0.000000,0.000000,0.000000,3.000000,10.324776,0.000000,-0.000000,0.000000,0.004012,71.239000
0.784059,0.000000,0.000000,0.615561,0.000000,0.000000,0.000000,0.000000,0.000000,3.000000,10.316712,0.000000,-0.000000,0.000000,0.003988,59.290000
0.788065,0.000000,0.000000,0.620575,0.000000,0.000000,0.000000,0.000000,0.000000,3.000000,10.308655,0.000000,-0.000000,0.000000,0.004005,64.525000
0.792059,0.000000,0.000000,0.625584,0.000000,0.000000,0.000000,0.000000,0.000000,3.000000,10.300658,0.000000,-0.000000,0.000000,0.003995,59.131000
0.796059,0.000000,0.000000,0.630607,0.000000,0.000000,0.000000,0.000000,0.000000,3.000000,10.292691,0.000000,-0.000000,0.000000,0.004000,58.792000
0.800059,0.000000,0.000000,0.635638,0.000000,0.000000,0.000000,0.000000,0.000000,3.000000,10.284763,0.000000,-0.000000,0.000000,0.004001,59.343000
0.804058,0.000000,0.000000,0.640676,0.000000,0.000000,0.000000,0.000000,0.000000,3.000000,10.276877,0.000000,-0.000000,0.000000,0.003999,58.412000
0.808059,0.000000,0.000000,0.645723,0.000000,0.000000,0.000000,0.000000,0.000000,3.000000,10.269030,0.000000,-0.000000,0.000000,0.004000,58.555000
0.812058,0.000000,0.000000,0.650777,0.000000,0.000000,0.000000,0.000000,0.000000,3.000000,10.261221,0.000000,-0.000000,0.000000,0.004000,58.420000
0.816059,0.000000,0.000000,0.655839,0.000000,0.000000,0.000000,0.000000,0.000000,3.000000,10.253452,0.000000,-0.000000,0.000000,0.004000,58.877000
0.820058,0.000000,0.000000,0.660907,0.000000,0.000000,0.000000,0.000000,0.000000,3.000000,10.245724,0.000000,-0.000000,0.000000,0.004000,58.428000
0.824058,0.000000,0.000000,0.665982,0.000000,0.000000,0.000000,0.000000,0.000000,3.000000,10.238033,0.000000,-0.000000,0.000000,0.004000,58.348000
0.828059,0.000000,0.000000,0.671065,0.000000,0.000000,0.000000,0.000000,0.000000,3.000000,10.230383,0.000000,-0.000000,0.000000,0.004000,58.510000
0.832058,0.000000,0.000000,0.676154,0.000000,0.000000,0.000000,0.000000,0.000000,3.000000,10.222771,0.000000,-0.000000,0.000000,0.004000,58.394000
0.836058,0.000000,0.000000,0.681251,0.000000,0.000000,0.000000,0.000000,0.000000,3.000000,10.215199,0.000000,-0.000000,0.000000,0.004000,58.407000
0.840058,0.000000,0.000000,0.686354,0.000000,0.000000,0.000000,0.000000,0.000000,3.000000,10.207664,0.000000,-0.000000,0.000000,0.004000,58.457000
0.844058,0.000000,0.000000,0.691463,0.000000,0.000000,0.000000,0.000000,0.000000,3.000000,10.200169,0.000000,-0.000000,0.000000,0.004000,58.341000
0.848058,0.000000,0.000000,0.696578,0.000000,0.000000,0.000000,0.000000,0.000000,3.000000,10.192713,0.000000,-0.000000,0.000000,0.004000,58.169000
0.852069,0.000000,0.000000,0.701714,0.000000,0.000000,0.000000,0.000000,0.000000,3.000000,10.185274,0.000000,-0.000000,0.000000,0.004011,69.441000
0.856060,0.000000,0.000000,0.706831,0.000000,0.000000,0.000000,0.000000,0.000000,3.000000,10.177911,0.000000,-0.000000,0.000000,0.003991,60.325000
0.860059,0.000000,0.000000,0.711963,0.000000,0.000000,0.000000,0.000000,0.000000,3.000000,10.170572,0.000000,-0.000000,0.000000,0.003998,58.783000
0.864060,0.000000,0.000000,0.717105,0.000000,0.000000,0.000000,0.000000,0.000000,3.000000,10.163266,0.000000,-0.000000,0.000000,0.004002,60.352000
0.868059,0.000000,0.000000,0.722249,0.000000,0.000000,0.000000,0.000000,0.000000,3.000000,10.156003,0.000000,-0.000000,0.000000,0.003999,59.291000
0.872058,0.000000,0.000000,0.727399,0.000000,0.000000,0.000000,0.000000,0.000000,3.000000,10.148777,0.000000,-0.000000,0.000000,0.003999,58.323000
0.876058,0.000000,0.000000,0.732556,0.000000,0.000000,0.000000,0.000000,0.000000,3.000000,10.141588,0.000000,-0.000000,0.000000,0.004000,58.317000
0.880058,0.000000,0.000000,0.737718,0.000000,0.000000,0.000000,0.000000,0.000000,3.000000,10.134436,0.000000,-0.000000,0.000000,0.004000,58.183000
0.884058,0.000000,0.000000,0.742886,0.000000,0.000000,0.000000,0.000000,0.000000,3.000000,10.127322,0.000000,-0.000000,0.000000,0.004000,58.251000
0.888059,0.000000,0.000000,0.748059,0.000000,0.000000,0.000000,0.000000,0.000000,3.000000,10.120245,0.000000,-0.000000,0.000000,0.004000,58.672000
0.892058,0.000000,0.000000,0.753236,0.000000,0.000000,0.000000,0.000000,0.000000,3.000000,10.113206,0.000000,-0.000000,0.000000,0.004000,58.259000
0.896059,0.000000,0.000000,0.758420,0.000000,0.000000,0.000000,0.000000,0.000000,3.000000,10.106203,0.000000,-0.000000,0.000000,0.004000,58.569000
0.900058,0.000000,0.000000,0.763606,0.000000,0.000000,0.000000,0.000000,0.000000,3.000000,10.099239,0.000000,-0.000000,0.000000,0.003999,57.786000
0.904059,0.000000,0.000000,0.768800,0.000000,0.000000,0.000000,0.000000,0.000000,3.000000,10.092310,0.000000,-0.000000,0.000000,0.004001,59.096000
0.908058,0.000000,0.000000,0.773996,0.000000,0.000000,0.000000,0.000000,0.000000,3.000000,10.085421,0.000000,-0.000000,0.000000,0.003999,58.294000
0.912058,0.000000,0.000000,0.779198,0.000000,0.000000,0.000000,0.000000,0.000000,3.000000,10.078566,0.000000,-0.000000,0.000000,0.004000,58.252000
0.916060,0.000000,0.000000,0.784406,0.000000,0.000000,0.000000,0.000000,0.000000,3.000000,10.071745,0.000000,-0.000000,0.000000,0.004002,60.210000
0.920065,0.000000,0.000000,0.789623,0.000000,0.000000,0.000000,0.000000,0.000000,3.000000,10.064957,0.000000,-0.000000,0.000000,0.004004,64.686000
0.924062,0.000000,0.000000,0.794834,0.000000,0.000000,0.000000,0.000000,0.000000,3.000000,10.058216,0.000000,-0.000000,0.000000,0.003998,62.495000
0.928067,0.000000,0.000000,0.800058,0.000000,0.000000,0.000000,0.000000,0.000000,3.000000,10.051501,0.000000,-0.000000,0.000000,0.004004,66.916000
0.932060,0.000000,0.000000,0.805271,0.000000,0.000000,0.000000,0.000000,0.000000,3.000000,10.044842,0.000000,-0.000000,0.000000,0.003993,59.596000
0.936059,0.000000,0.000000,0.810497,0.000000,0.000000,0.000000,0.000000,0.000000,3.000000,10.038208,0.000000,-0.000000,0.000000,0.003999,58.665000
0.940059,0.000000,0.000000,0.815727,0.000000,0.000000,0.000000,0.000000,0.000000,3.000000,10.031609,0.000000,-0.000000,0.000000,0.004000,58.678000
0.944058,0.000000,0.000000,0.820960,0.000000,0.000000,0.000000,0.000000,0.000000,3.000000,10.025045,0.000000,-0.000000,0.000000,0.004000,58.358000
0.948058,0.000000,0.000000,0.826197,0.000000,0.000000,0.000000,0.000000,0.000000,3.000000,10.018518,0.000000,-0.000000,0.000000,0.004000,58.371000
0.952059,0.000000,0.000000,0.831439,0.000000,0.000000,0.000000,0.000000,0.000000,3.000000,10.012026,0.000000,-0.000000,0.000000,0.004001,58.959000
0.956058,0.000000,0.000000,0.836682,0.000000,0.000000,0.000000,0.000000,0.000000,3.000000,10.005569,0.000000,-0.000000,0.000000,0.003999,58.417000
0.960058,0.000000,0.000000,0.841929,0.000000,0.000000,0.000000,0.000000,0.000000,3.000000,9.999149,0.000000,-0.000000,0.000000,0.004000,58.226000
0.964058,0.000000,0.000000,0.847180,0.000000,0.000000,0.000000,0.000000,0.000000,3.000000,9.992764,0.000000,-0.000000,0.000000,0.004000,58.388000
0.968059,0.000000,0.000000,0.852434,0.000000,0.000000,0.000000,0.000000,0.000000,3.000000,9.986413,0.000000,-0.000000,0.000000,0.004001,59.068000
0.972058,0.000000,0.000000,0.857690,0.000000,0.000000,0.000000,0.000000,0.000000,3.000000,9.980100,0.000000,-0.000000,0.000000,0.003999,58.266000
0.976058,0.000000,0.000000,0.862949,0.000000,0.000000,0.000000,0.000000,0.000000,3.000000,9.973820,0.000000,-0.000000,0.000000,0.004000,58.316000
0.980059,0.000000,0.000000,0.868212,0.000000,0.000000,0.000000,0.000000,0.000000,3.000000,9.967574,0.000000,-0.000000,0.000000,0.004000,58.774000
0.984060,0.000000,0.000000,0.873478,0.000000,0.000000,0.000000,0.000000,0.000000,3.000000,9.961361,0.000000,-0.000000,0.000000,0.004002,60.398000
0.988059,0.000000,0.000000,0.878744,0.000000,0.000000,0.000000,0.000000,0.000000,3.000000,9.955188,0.000000,-0.000000,0.000000,0.003999,59.115000
0.992059,0.000000,0.000000,0.884013,0.000000,0.000000,0.000000,0.000000,0.000000,3.000000,9.949048,0.000000,-0.000000,0.000000,0.004000,58.666000
0.996065,0.000000,0.000000,0.889293,0.000000,0.000000,0.000000,0.000000,0.000000,3.000000,9.942932,0.000000,-0.000000,0.000000,0.004007,65.364000
1.000058,0.000000,0.000000,0.894558,0.000000,0.000000,0.000000,0.000000,0.000000,3.000000,9.936871,0.000000,-0.000000,0.000000,0.003993,58.229000
1.004058,0.000000,0.000000,0.899834,0.000000,0.000000,0.000000,0.000000,0.000000,3.000000,9.930834,0.000000,-0.000000,0.000000,0.004000,58.280000
1.008059,0.000000,0.000000,0.905113,0.000000,0.000000,0.000000,0.000000,0.000000,3.000000,9.924829,0.000000,-0.000000,0.000000,0.004001,58.960000
1.012059,0.000000,0.000000,0.910393,0.000000,0.000000,0.000000,0.000000,0.000000,3.000000,9.918860,0.000000,-0.000000,0.000000,0.004000,58.788000
1.016058,0.000000,0.000000,0.915675,0.000000,0.000000,0.000000,0.000000,0.000000,3.000000,9.912927,0.000000,-0.000000,0.000000,0.004000,58.301000
1.020059,0.000000,0.000000,0.920959,0.000000,0.000000,0.000000,0.000000,0.000000,3.000000,9.907024,0.000000,-0.000000,0.000000,0.004000,58.740000
1.024060,0.000000,0.000000,0.926245,0.000000,0.000000,0.000000,0.000000,0.000000,3.000000,9.901155,0.000000,-0.000000,0.000000,0.004001,59.698000
1.028059,0.000000,0.000000,0.931531,0.000000,0.000000,0.000000,0.000000,0.000000,3.000000,9.895323,0.000000,-0.000000,0.000000,0.003999,58.545000
1.032059,0.000000,0.000000,0.936819,0.000000,0.000000,0.000000,0.000000,0.000000,3.000000,9.889523,0.000000,-0.000000,0.000000,0.004000,58.688000
1.036058,0.000000,0.000000,0.942109,0.000000,0.000000,0.000000,0.000000,0.000000,3.000000,9.883757,0.000000,-0.000000,0.000000,0.004000,58.405000
1.040059,0.000000,0.000000,0.947400,0.000000,0.000000,0.000000,0.000000,0.000000,3.000000,9.878022,0.000000,-0.000000,0.000000,0.004000,58.547000
1.044058,0.000000,0.000000,0.952692,0.000000,0.000000,0.000000,0.000000,0.000000,3.000000,9.872322,0.000000,-0.000000,0.000000,0.004000,58.468000
1.048059,0.000000,0.000000,0.957986,0.000000,0.000000,0.000000,0.000000,0.000000,3.000000,9.866654,0.000000,-0.000000,0.000000,0.004000,58.815000
1.052063,0.000000,0.000000,0.963286,0.000000,0.000000,0.000000,0.000000,0.000000,3.000000,9.861015,0.000000,-0.000000,0.000000,0.004004,62.865000
1.056060,0.000000,0.000000,0.968577,0.000000,0.000000,0.000000,0.000000,0.000000,3.000000,9.855417,0.000000,-0.000000,0.000000,0.003997,59.952000
1.060059,0.000000,0.000000,0.973871,0.000000,0.000000,0.000000,0.000000,0.000000,3.000000,9.849851,0.000000,-0.000000,0.000000,0.003999,58.706000
1.064060,0.000000,0.000000,0.979170,0.000000,0.000000,0.000000,0.000000,0.000000,3.000000,9.844313,0.000000,-0.000000,0.000000,0.004001,59.979000
1.068058,0.000000,0.000000,0.984465,0.000000,0.000000,0.000000,0.000000,0.000000,3.000000,9.838812,0.000000,-0.000000,0.000000,0.003998,58.400000
1.072058,0.000000,0.000000,0.989763,0.000000,0.000000,0.000000,0.000000,0.000000,3.000000,9.833342,0.000000,-0.000000,0.000000,0.004000,58.191000
1.076058,0.000000,0.000000,0.995061,0.000000,0.000000,0.000000,0.000000,0.000000,3.000000,9.827903,0.000000,-0.000000,0.000000,0.004000,58.111000
1.080058,0.000000,0.000000,1.000360,0.000000,0.000000,0.000000,0.000000,0.000000,3.000000,9.822496,0.000000,-0.000000,0.000000,0.004000,58.106000
1.084058,0.000000,0.000000,1.005659,0.000000,0.000000,0.000000,0.000000,0.000000,3.000000,9.817122,0.000000,-0.000000,0.000000,0.004000,58.397000
1.088058,0.000000,0.000000,1.010958,0.000000,0.000000,0.000000,0.000000,0.000000,3.000000,9.811781,0.000000,-0.000000,0.000000,0.004000,58.188000
1.092058,0.000000,0.000000,1.016257,0.000000,0.000000,0.000000,0.000000,0.000000,3.000000,9.806471,0.000000,-0.000000,0.000000,0.004000,58.091000
1.096059,0.000000,0.000000,1.021557,0.000000,0.000000,0.000000,0.000000,0.000000,3.000000,9.801191,0.000000,-0.000000,0.000000,0.004001,58.659000
1.100058,0.000000,0.000000,1.026856,0.000000,0.000000,0.000000,0.000000,0.000000,3.000000,9.795946,0.000000,-0.000000,0.000000,0.004000,58.376000
1.104058,0.000000,0.000000,1.032156,0.000000,0.000000,0.000000,0.000000,0.000000,3.000000,9.790731,0.000000,-0.000000,0.000000,0.004000,58.316000
1.108058,0.000000,0.000000,1.037454,0.000000,0.000000,0.000000,0.000000,0.000000,3.000000,9.785548,0.000000,-0.000000,0.000000,0.004000,58.255000
1.112058,0.000000,0.000000,1.042753,0.000000,0.000000,0.000000,0.000000,0.000000,3.000000,9.780396,0.000000,-0.000000,0.000000,0.004000,58.157000
1.116071,0.000000,0.000000,1.048069,0.000000,0.000000,0.000000,0.000000,0.000000,3.000000,9.775259,0.000000,-0.000000,0.000000,0.004013,71.337000
1.120059,0.000000,0.000000,1.053349,0.000000,0.000000,0.000000,0.000000,0.000000,3.000000,9.770185,0.000000,-0.000000,0.000000,0.003987,58.572000
1.124058,0.000000,0.000000,1.058646,0.000000,0.000000,0.000000,0.000000,0.000000,3.000000,9.765127,0.000000,-0.000000,0.000000,0.004000,58.382000
1.128059,0.000000,0.000000,1.063944,0.000000,0.000000,0.000000,0.000000,0.000000,3.000000,9.760099,0.000000,-0.000000,0.000000,0.004001,59.303000
1.132059,0.000000,0.000000,1.069240,0.000000,0.000000,0.000000,0.000000,0.000000,3.000000,9.755102,0.000000,-0.000000,0.000000,0.004000,59.409000
1.136058,0.000000,0.000000,1.074534,0.000000,0.000000,0.000000,0.000000,0.000000,3.000000,9.750138,0.000000,-0.000000,0.000000,0.003999,58.089000
1.140058,0.000000,0.000000,1.079828,0.000000,0.000000,0.000000,0.000000,0.000000,3.000000,9.745203,0.000000,-0.000000,0.000000,0.004000,58.120000
1.144058,0.000000,0.000000,1.085121,0.000000,0.000000,0.000000,0.000000,0.000000,3.000000,9.740298,0.000000,-0.000000,0.000000,0.004000,58.189000
1.148058,0.000000,0.000000,1.090413,0.000000,0.000000,0.000000,0.000000,0.000000,3.000000,9.735424,0.000000,-0.000000,0.000000,0.004000,58.147000
1.152058,0.000000,0.000000,1.095705,0.000000,0.000000,0.000000,0.000000,0.000000,3.000000,9.730581,0.000000,-0.000000,0.000000,0.004000,58.234000
1.156058,0.000000,0.000000,1.100994,0.000000,0.000000,0.000000,0.000000,0.000000,3.000000,9.725767,0.000000,-0.000000,0.000000,0.004000,58.118000
1.160058,0.000000,0.000000,1.106283,0.000000,0.000000,0.000000,0.000000,0.000000,3.000000,9.720984,0.000000,-0.000000,0.000000,0.004000,58.372000
1.164058,0.000000,0.000000,1.111570,0.000000,0.000000,0.000000,0.000000,0.000000,3.000000,9.716231,0.000000,-0.000000,0.000000,0.004000,58.311000
1.168058,0.000000,0.000000,1.116856,0.000000,0.000000,0.000000,0.000000,0.000000,3.000000,9.711508,0.000000,-0.000000,0.000000,0.004000,58.195000
1.172059,0.000000,0.000000,1.122141,0.000000,0.000000,0.000000,0.000000,0.000000,3.000000,9.706814,0.000000,-0.000000,0.000000,0.004001,58.764000
1.176058,0.000000,0.000000,1.127423,0.000000,0.000000,0.000000,0.000000,0.000000,3.000000,9.702150,0.000000,-0.000000,0.000000,0.003999,58.166000
1.180059,0.000000,0.000000,1.132705,0.000000,0.000000,0.000000,0.000000,0.000000,3.000000,9.697515,0.000000,-0.000000,0.000000,0.004001,58.772000
1.184066,0.000000,0.000000,1.137994,0.000000,0.000000,0.000000,0.000000,0.000000,3.000000,9.692904,0.000000,-0.000000,0.000000,0.004007,65.674000
1.188059,0.000000,0.000000,1.143263,0.000000,0.000000,0.000000,0.000000,0.000000,3.000000,9.688335,0.000000,-0.000000,0.000000,0.003994,59.261000
1.192060,0.000000,0.000000,1.148540,0.000000,0.000000,0.000000,0.000000,0.000000,3.000000,9.683789,0.000000,-0.000000,0.000000,0.004001,60.349000
1.196059,0.000000,0.000000,1.153812,0.000000,0.000000,0.000000,0.000000,0.000000,3.000000,9.679274,0.000000,-0.000000,0.000000,0.003999,58.880000
1.200058,0.000000,0.000000,1.159083,0.000000,0.000000,0.000000,0.000000,0.000000,3.000000,9.674788,0.000000,-0.000000,0.000000,0.003999,58.357000
1.204058,0.000000,0.000000,1.164353,0.000000,0.000000,0.000000,0.000000,0.000000,3.000000,9.670329,0.000000,-0.000000,0.000000,0.004000,58.296000
1.208058,0.000000,0.000000,1.169620,0.000000,0.000000,0.000000,0.000000,0.000000,3.000000,9.665899,0.000000,-0.000000,0.000000,0.004000,58.309000
1.212059,0.000000,0.000000,1.174886,0.000000,0.000000,0.000000,0.000000,0.000000,3.000000,9.661498,0.000000,-0.000000,0.000000,0.004000,58.545000
1.216059,0.000000,0.000000,1.180149,0.000000,0.000000,0.000000,0.000000,0.000000,3.000000,9.657126,0.000000,-0.000000,0.000000,0.004000,58.502000
1.220059,0.000000,0.000000,1.185411,0.000000,0.000000,0.000000,0.000000,0.000000,3.000000,9.652782,0.000000,-0.000000,0.000000,0.004001,59.405000
1.224060,0.000000,0.000000,1.190670,0.000000,0.000000,0.000000,0.000000,0.000000,3.000000,9.648467,0.000000,-0.000000,0.000000,0.004001,60.048000
1.228058,0.000000,0.000000,1.195923,0.000000,0.000000,0.000000,0.000000,0.000000,3.000000,9.644182,0.000000,-0.000000,0.000000,0.003998,58.227000
1.232059,0.000000,0.000000,1.201177,0.000000,0.000000,0.000000,0.000000,0.000000,3.000000,9.639923,0.000000,-0.000000,0.000000,0.004001,59.000000
1.236058,0.000000,0.000000,1.206426,0.000000,0.000000,0.000000,0.000000,0.000000,3.000000,9.635695,0.000000,-0.000000,0.000000,0.003999,58.273000
1.240058,0.000000,0.000000,1.211674,0.000000,0.000000,0.000000,0.000000,0.000000,3.000000,9.631493,0.000000,-0.000000,0.000000,0.004000,58.286000
1.244058,0.000000,0.000000,1.216919,0.000000,0.000000,0.000000,0.000000,0.000000,3.000000,9.627318,0.000000,-0.000000,0.000000,0.004000,58.318000
1.248071,0.000000,0.000000,1.222177,0.000000,0.000000,0.000000,0.000000,0.000000,3.000000,9.623159,0.000000,-0.000000,0.000000,0.004012,70.664000
1.252059,0.000000,0.000000,1.227401,0.000000,0.000000,0.000000,0.000000,0.000000,3.000000,9.619054,0.000000,-0.000000,0.000000,0.003988,59.011000
1.256059,0.000000,0.000000,1.232637,0.000000,0.000000,0.000000,0.000000,0.000000,3.000000,9.614964,0.000000,-0.000000,0.000000,0.004000,58.524000
1.260072,0.000000,0.000000,1.237887,0.000000,0.000000,0.000000,0.000000,0.000000,3.000000,9.610888,0.000000,-0.000000,0.000000,0.004013,71.686000
1.264058,0.000000,0.000000,1.243099,0.000000,0.000000,0.000000,0.000000,0.000000,3.000000,9.606866,0.000000,-0.000000,0.000000,0.003987,58.384000
1.268058,0.000000,0.000000,1.248326,0.000000,0.000000,0.000000,0.000000,0.000000,3.000000,9.602858,0.000000,-0.000000,0.000000,0.004000,58.194000
1.272059,0.000000,0.000000,1.253550,0.000000,0.000000,0.000000,0.000000,0.000000,3.000000,9.598877,0.000000,-0.000000,0.000000,0.004001,58.837000
1.276058,0.000000,0.000000,1.258770,0.000000,0.000000,0.000000,0.000000,0.000000,3.000000,9.594924,0.000000,-0.000000,0.000000,0.003999,58.294000
1.280058,0.000000,0.000000,1.263987,0.000000,0.000000,0.000000,0.000000,0.000000,3.000000,9.590998,0.000000,-0.000000,0.000000,0.004000,58.363000
1.284058,0.000000,0.000000,1.269200,0.000000,0.000000,0.000000,0.000000,0.000000,3.000000,9.587098,0.000000,-0.000000,0.000000,0.004000,58.358000
1.288059,0.000000,0.000000,1.274410,0.000000,0.000000,0.000000,0.000000,0.000000,3.000000,9.583225,0.000000,-0.000000,0.000000,0.004000,58.631000
1.292058,0.000000,0.000000,1.279616,0.000000,0.000000,0.000000,0.000000,0.000000,3.000000,9.579380,0.000000,-0.000000,0.000000,0.004000,58.218000
1.296058,0.000000,0.000000,1.284819,0.000000,0.000000,0.000000,0.000000,0.000000,3.000000,9.575562,0.000000,-0.000000,0.000000,0.004000,58.379000
1.300058,0.000000,0.000000,1.290018,0.000000,0.000000,0.000000,0.000000,0.000000,3.000000,9.571769,0.000000,-0.000000,0.000000,0.004000,58.337000
1.304058,0.000000,0.000000,1.295213,0.000000,0.000000,0.000000,0.000000,0.000000,3.000000,9.568003,0.000000,-0.000000,0.000000,0.004000,58.258000
1.308058,0.000000,0.000000,1.300405,0.000000,0.000000,0.000000,0.000000,0.000000,3.000000,9.564263,0.000000,-0.000000,0.000000,0.004000,58.456000
1.312058,0.000000,0.000000,1.305592,0.000000,0.000000,0.000000,0.000000,0.000000,3.000000,9.560551,0.000000,-0.000000,0.000000,0.004000,58.340000
1.316063,0.000000,0.000000,1.310781,0.000000,0.000000,0.000000,0.000000,0.000000,3.000000,9.556859,0.000000,-0.000000,0.000000,0.004004,62.724000
1.320059,0.000000,0.000000,1.315957,0.000000,0.000000,0.000000,0.000000,0.000000,3.000000,9.553202,0.000000,-0.000000,0.000000,0.003997,59.422000
1.324063,0.000000,0.000000,1.321137,0.000000,0.000000,0.000000,0.000000,0.000000,3.000000,9.549563,0.000000,-0.000000,0.000000,0.004003,62.713000
1.328060,0.000000,0.000000,1.326305,0.000000,0.000000,0.000000,0.000000,0.000000,3.000000,9.545958,0.000000,-0.000000,0.000000,0.003997,60.097000
1.332059,0.000000,0.000000,1.331471,0.000000,0.000000,0.000000,0.000000,0.000000,3.000000,9.542375,0.000000,-0.000000,0.000000,0.003999,59.017000
1.336058,0.000000,0.000000,1.336633,0.000000,0.000000,0.000000,0.000000,0.000000,3.000000,9.538818,0.000000,-0.000000,0.000000,0.003999,58.160000
1.340058,0.000000,0.000000,1.341792,0.000000,0.000000,0.000000,0.000000,0.000000,3.000000,9.535287,0.000000,-0.000000,0.000000,0.004000,58.174000
1.344059,0.000000,0.000000,1.346947,0.000000,0.000000,0.000000,0.000000,0.000000,3.000000,9.531780,0.000000,-0.000000,0.000000,0.004001,58.872000
1.348059,0.000000,0.000000,1.352097,0.000000,0.000000,0.000000,0.000000,0.000000,3.000000,9.528299,0.000000,-0.000000,0.000000,0.004000,58.663000
1.352058,0.000000,0.000000,1.357242,0.000000,0.000000,0.000000,0.000000,0.000000,3.000000,9.524844,0.000000,-0.000000,0.000000,0.004000,58.380000
1.356058,0.000000,0.000000,1.362383,0.000000,0.000000,0.000000,0.000000,0.000000,3.000000,9.521414,0.000000,-0.000000,0.000000,0.004000,58.264000
1.360060,0.000000,0.000000,1.367521,0.000000,0.000000,0.000000,0.000000,0.000000,3.000000,9.518007,0.000000,-0.000000,0.000000,0.004002,59.814000
1.364059,0.000000,0.000000,1.372652,0.000000,0.000000,0.000000,0.000000,0.000000,3.000000,9.514629,0.000000,-0.000000,0.000000,0.003999,58.550000
1.368058,0.000000,0.000000,1.377779,0.000000,0.000000,0.000000,0.000000,0.000000,3.000000,9.511274,0.000000,-0.000000,0.000000,0.004000,58.378000
1.372058,0.000000,0.000000,1.382901,0.000000,0.000000,0.000000,0.000000,0.000000,3.000000,9.507944,0.000000,-0.000000,0.000000,0.004000,58.465000
1.376058,0.000000,0.000000,1.388019,0.000000,0.000000,0.000000,0.000000,0.000000,3.000000,9.504639,0.000000,-0.000000,0.000000,0.004000,58.182000
1.380066,0.000000,0.000000,1.393142,0.000000,0.000000,0.000000,0.000000,0.000000,3.000000,9.501351,0.000000,-0.000000,0.000000,0.004008,66.269000
1.384073,0.000000,0.000000,1.398259,0.000000,0.000000,0.000000,0.000000,0.000000,3.000000,9.498090,0.000000,-0.000000,0.000000,0.004007,73.357000
1.388063,0.000000,0.000000,1.403349,0.000000,0.000000,0.000000,0.000000,0.000000,3.000000,9.494866,0.000000,-0.000000,0.000000,0.003989,62.796000
1.392072,0.000000,0.000000,1.408458,0.000000,0.000000,0.000000,0.000000,0.000000,3.000000,9.491652,0.000000,-0.000000,0.000000,0.004009,71.550000
1.396059,0.000000,0.000000,1.413535,0.000000,0.000000,0.000000,0.000000,0.000000,3.000000,9.488480,0.000000,-0.000000,0.000000,0.003987,58.545000
1.400059,0.000000,0.000000,1.418623,0.000000,0.000000,0.000000,0.000000,0.000000,3.000000,9.485320,0.000000,-0.000000,0.000000,0.004000,58.966000
1.404059,0.000000,0.000000,1.423706,0.000000,0.000000,0.000000,0.000000,0.000000,3.000000,9.482185,0.000000,-0.000000,0.000000,0.004000,58.979000
1.408059,0.000000,0.000000,1.428784,0.000000,0.000000,0.000000,0.000000,0.000000,3.000000,9.479074,0.000000,-0.000000,0.000000,0.004000,59.474000
1.412057,0.000000,0.000000,1.433854,0.000000,0.000000,0.000000,0.000000,0.000000,3.000000,9.475989,0.000000,-0.000000,0.000000,0.003998,57.450000
1.416059,0.000000,0.000000,1.438922,0.000000,0.000000,0.000000,0.000000,0.000000,3.000000,9.472925,0.000000,-0.000000,0.000000,0.004001,58.630000
1.420065,0.000000,0.000000,1.443993,0.000000,0.000000,0.000000,0.000000,0.000000,3.000000,9.469881,0.000000,-0.000000,0.000000,0.004007,65.310000
1.424061,0.000000,0.000000,1.449043,0.000000,0.000000,0.000000,0.000000,0.000000,3.000000,9.466868,0.000000,-0.000000,0.000000,0.003995,60.675000
1.428060,0.000000,0.000000,1.454093,0.000000,0.000000,0.000000,0.000000,0.000000,3.000000,9.463878,0.000000,-0.000000,0.000000,0.003999,59.633000
1.432059,0.000000,0.000000,1.459137,0.000000,0.000000,0.000000,0.000000,0.000000,3.000000,9.460909,0.000000,-0.000000,0.000000,0.003999,59.090000
1.436058,0.000000,0.000000,1.464176,0.000000,0.000000,0.000000,0.000000,0.000000,3.000000,9.457964,0.000000,-0.000000,0.000000,0.003999,58.252000
1.440058,0.000000,0.000000,1.469211,0.000000,0.000000,0.000000,0.000000,0.000000,3.000000,9.455042,0.000000,-0.000000,0.000000,0.004000,58.302000
1.444065,0.000000,0.000000,1.474248,0.000000,0.000000,0.000000,0.000000,0.000000,3.000000,9.452139,0.000000,-0.000000,0.000000,0.004007,65.149000
1.448066,0.000000,0.000000,1.479271,0.000000,0.000000,0.000000,0.000000,0.000000,3.000000,9.449263,0.000000,-0.000000,0.000000,0.004000,65.588000
1.452059,0.000000,0.000000,1.484281,0.000000,0.000000,0.000000,0.000000,0.000000,3.000000,9.446414,0.000000,-0.000000,0.000000,0.003994,59.323000
1.456058,0.000000,0.000000,1.489290,0.000000,0.000000,0.000000,0.000000,0.000000,3.000000,9.443584,0.000000,-0.000000,0.000000,0.003999,57.911000
1.460063,0.000000,0.000000,1.494303,0.000000,0.000000,0.000000,0.000000,0.000000,3.000000,9.440774,0.000000,-0.000000,0.000000,0.004005,63.146000
1.464059,0.000000,0.000000,1.499297,0.000000,0.000000,0.000000,0.000000,0.000000,3.000000,9.437993,0.000000,-0.000000,0.000000,0.003995,58.604000
1.468059,0.000000,0.000000,1.504291,0.000000,0.000000,0.000000,0.000000,0.000000,3.000000,9.435231,0.000000,-0.000000,0.000000,0.004000,58.710000
1.472058,0.000000,0.000000,1.509278,0.000000,0.000000,0.000000,0.000000,0.000000,3.000000,9.432491,0.000000,-0.000000,0.000000,0.003999,58.205000
1.476060,0.000000,0.000000,1.514263,0.000000,0.000000,0.000000,0.000000,0.000000,3.000000,9.429773,0.000000,-0.000000,0.000000,0.004002,60.033000
1.480060,0.000000,0.000000,1.519238,0.000000,0.000000,0.000000,0.000000,0.000000,3.000000,9.427079,0.000000,-0.000000,0.000000,0.004000,59.602000
1.484059,0.000000,0.000000,1.524207,0.000000,0.000000,0.000000,0.000000,0.000000,3.000000,9.424408,0.000000,-0.000000,0.000000,0.004000,59.115000
1.488059,0.000000,0.000000,1.529170,0.000000,0.000000,0.000000,0.000000,0.000000,3.000000,9.421758,0.000000,-0.000000,0.000000,0.004000,58.721000
1.492058,0.000000,0.000000,1.534127,0.000000,0.000000,0.000000,0.000000,0.000000,3.000000,9.419129,0.000000,-0.000000,0.000000,0.004000,58.327000
1.496059,0.000000,0.000000,1.539080,0.000000,0.000000,0.000000,0.000000,0.000000,3.000000,9.416523,0.000000,-0.000000,0.000000,0.004001,59.118000
1.500059,0.000000,0.000000,1.544024,0.000000,0.000000,0.000000,0.000000,0.000000,3.000000,9.413939,0.000000,-0.000000,0.000000,0.003999,58.520000
1.504059,0.000000,0.000000,1.548963,0.000000,0.000000,0.000000,0.000000,0.000000,3.000000,9.411377,0.000000,-0.000000,0.000000,0.004000,58.607000
1.508058,0.000000,0.000000,1.553895,0.000000,0.000000,0.000000,0.000000,0.000000,3.000000,9.408836,0.000000,-0.000000,0.000000,0.004000,58.158000
1.512077,0.000000,0.000000,1.558845,0.000000,0.000000,0.000000,0.000000,0.000000,3.000000,9.406305,0.000000,-0.000000,0.000000,0.004019,77.467000
1.516073,0.000000,0.000000,1.563758,0.000000,0.000000,0.000000,0.000000,0.000000,3.000000,9.403811,0.000000,-0.000000,0.000000,0.003995,72.851000
1.520062,0.000000,0.000000,1.568658,0.000000,0.000000,0.000000,0.000000,0.000000,3.000000,9.401341,0.000000,-0.000000,0.000000,0.003989,61.586000
1.524134,0.000000,0.000000,1.573654,0.000000,0.000000,0.000000,0.000000,0.000000,3.000000,9.398843,0.000000,-0.000000,0.000000,0.004073,134.285000
1.528084,0.000000,0.000000,1.578492,0.000000,0.000000,0.000000,0.000000,0.000000,3.000000,9.396441,0.000000,-0.000000,0.000000,0.003949,83.669000
1.532062,0.000000,0.000000,1.583359,0.000000,0.000000,0.000000,0.000000,0.000000,3.000000,9.394041,0.000000,-0.000000,0.000000,0.003978,62.089000
1.536058,0.000000,0.000000,1.588241,0.000000,0.000000,0.000000,0.000000,0.000000,3.000000,9.391652,0.000000,-0.000000,0.000000,0.003996,58.399000
1.540058,0.000000,0.000000,1.593121,0.000000,0.000000,0.000000,0.000000,0.000000,3.000000,9.389282,0.000000,-0.000000,0.000000,0.004000,58.449000
1.544064,0.000000,0.000000,1.598002,0.000000,0.000000,0.000000,0.000000,0.000000,3.000000,9.386930,0.000000,-0.000000,0.000000,0.004006,64.222000
1.548061,0.000000,0.000000,1.602866,0.000000,0.000000,0.000000,0.000000,0.000000,3.000000,9.384603,0.000000,-0.000000,0.000000,0.003997,61.494000
1.552059,0.000000,0.000000,1.607723,0.000000,0.000000,0.000000,0.000000,0.000000,3.000000,9.382296,0.000000,-0.000000,0.000000,0.003998,59.396000
1.556059,0.000000,0.000000,1.612576,0.000000,0.000000,0.000000,0.000000,0.000000,3.000000,9.380009,0.000000,-0.000000,0.000000,0.004000,59.373000
1.560059,0.000000,0.000000,1.617423,0.000000,0.000000,0.000000,0.000000,0.000000,3.000000,9.377743,0.000000,-0.000000,0.000000,0.004000,59.219000
1.564059,0.000000,0.000000,1.622261,0.000000,0.000000,0.000000,0.000000,0.000000,3.000000,9.375497,0.000000,-0.000000,0.000000,0.003999,58.621000
1.568059,0.000000,0.000000,1.627094,0.000000,0.000000,0.000000,0.000000,0.000000,3.000000,9.373271,0.000000,-0.000000,0.000000,0.004000,58.561000
1.572058,0.000000,0.000000,1.631919,0.000000,0.000000,0.000000,0.000000,0.000000,3.000000,9.371066,0.000000,-0.000000,0.000000,0.004000,58.167000
1.576066,0.000000,0.000000,1.636748,0.000000,0.000000,0.000000,0.000000,0.000000,3.000000,9.368876,0.000000,-0.000000,0.000000,0.004008,66.124000
1.580071,0.000000,0.000000,1.641566,0.000000,0.000000,0.000000,0.000000,0.000000,3.000000,9.366709,0.000000,-0.000000,0.000000,0.004005,71.323000
1.584063,0.000000,0.000000,1.646360,0.000000,0.000000,0.000000,0.000000,0.000000,3.000000,9.364569,0.000000,-0.000000,0.000000,0.003992,62.855000
1.588059,0.000000,0.000000,1.651153,0.000000,0.000000,0.000000,0.000000,0.000000,3.000000,9.362446,0.000000,-0.000000,0.000000,0.003996,59.349000
1.592061,0.000000,0.000000,1.655946,0.000000,0.000000,0.000000,0.000000,0.000000,3.000000,9.360339,0.000000,-0.000000,0.000000,0.004002,60.937000
1.596061,0.000000,0.000000,1.660729,0.000000,0.000000,0.000000,0.000000,0.000000,3.000000,9.358254,0.000000,-0.000000,0.000000,0.004000,61.043000
1.600058,0.000000,0.000000,1.665501,0.000000,0.000000,0.000000,0.000000,0.000000,3.000000,9.356190,0.000000,-0.000000,0.000000,0.003997,58.019000
1.604058,0.000000,0.000000,1.670271,0.000000,0.000000,0.000000,0.000000,0.000000,3.000000,9.354144,0.000000,-0.000000,0.000000,0.004000,58.402000
1.608058,0.000000,0.000000,1.675032,0.000000,0.000000,0.000000,0.000000,0.000000,3.000000,9.352118,0.000000,-0.000000,0.000000,0.004000,58.268000
1.612058,0.000000,0.000000,1.679787,0.000000,0.000000,0.000000,0.000000,0.000000,3.000000,9.350110,0.000000,-0.000000,0.000000,0.004000,58.262000
1.616058,0.000000,0.000000,1.684533,0.000000,0.000000,0.000000,0.000000,0.000000,3.000000,9.348123,0.000000,-0.000000,0.000000,0.004000,58.109000
1.620059,0.000000,0.000000,1.689274,0.000000,0.000000,0.000000,0.000000,0.000000,3.000000,9.346154,0.000000,-0.000000,0.000000,0.004001,58.678000
1.624059,0.000000,0.000000,1.694006,0.000000,0.000000,0.000000,0.000000,0.000000,3.000000,9.344205,0.000000,-0.000000,0.000000,0.004000,58.747000
1.628059,0.000000,0.000000,1.698731,0.000000,0.000000,0.000000,0.000000,0.000000,3.000000,9.342275,0.000000,-0.000000,0.000000,0.004000,58.704000
