time,x,y,z,roll,pitch,yaw,ref_x,ref_y,ref_z,F,tau_x,tau_y,tau_z,dt,latency_us
0.000001,0.000000,0.000000,0.000000,0.000000,0.000000,0.000000,0.000000,0.000000,3.000000,12.810000,0.000000,-0.000000,0.000000,0.004000,0.000000
0.013631,0.000000,0.000000,0.000000,0.000000,0.000000,0.000000,0.000000,0.000000,3.000000,12.748666,0.000000,-0.000000,0.000000,0.013630,9630.744000
0.026928,0.000000,0.000000,0.000544,0.000000,0.000000,0.000000,0.000000,0.000000,3.000000,12.689507,0.000000,-0.000000,0.000000,0.013298,18928.264000
0.037742,0.000000,0.000000,0.001408,0.000000,0.000000,0.000000,0.000000,0.000000,3.000000,12.641933,0.000000,-0.000000,0.000000,0.010814,25742.221000
0.044283,0.000000,0.000000,0.002135,0.000000,0.000000,0.000000,0.000000,0.000000,3.000000,12.613422,0.000000,-0.000000,0.000000,0.006541,28283.073000
0.050510,0.000000,0.000000,0.002942,0.000000,0.000000,0.000000,0.000000,0.000000,3.000000,12.586429,0.000000,-0.000000,0.000000,0.006227,30510.295000
0.057370,0.000000,0.000000,0.003951,0.000000,0.000000,0.000000,0.000000,0.000000,3.000000,12.556851,0.000000,-0.000000,0.000000,0.006860,33370.093000
0.063834,0.000000,0.000000,0.005025,0.000000,0.000000,0.000000,0.000000,0.000000,3.000000,12.529145,0.000000,-0.000000,0.000000,0.006464,35833.741000
0.070778,0.000000,0.000000,0.006302,0.000000,0.000000,0.000000,0.000000,0.000000,3.000000,12.499543,0.000000,-0.000000,0.000000,0.006945,38778.299000
0.077475,0.000000,0.000000,0.007660,0.000000,0.000000,0.000000,0.000000,0.000000,3.000000,12.471170,0.000000,-0.000000,0.000000,0.006696,41474.726000
0.084087,0.000000,0.000000,0.009120,0.000000,0.000000,0.000000,0.000000,0.000000,3.000000,12.443316,0.000000,-0.000000,0.000000,0.006612,44087.152000
0.090434,0.000000,0.000000,0.010633,0.000000,0.000000,0.000000,0.000000,0.000000,3.000000,12.416733,0.000000,-0.000000,0.000000,0.006347,46433.782000
0.097006,0.000000,0.000000,0.012309,0.000000,0.000000,0.000000,0.000000,0.000000,3.000000,12.389359,0.000000,-0.000000,0.000000,0.006572,49005.893000
0.100079,0.000000,0.000000,0.013146,0.000000,0.000000,0.000000,0.000000,0.000000,3.000000,12.376635,0.000000,-0.000000,0.000000,0.003073,48078.588000
0.106097,0.000000,0.000000,0.014832,0.000000,0.000000,0.000000,0.000000,0.000000,3.000000,12.351778,0.000000,-0.000000,0.000000,0.006018,50097.031000
0.114172,0.000000,0.000000,0.017219,0.000000,0.000000,0.000000,0.000000,0.000000,3.000000,12.318605,0.000000,-0.000000,0.000000,0.008075,54171.536000
0.120219,0.000000,0.000000,0.019130,0.000000,0.000000,0.000000,0.000000,0.000000,3.000000,12.293939,0.000000,-0.000000,0.000000,0.006047,56218.665000
0.126305,0.000000,0.000000,0.021146,0.000000,0.000000,0.000000,0.000000,0.000000,3.000000,12.269247,0.000000,-0.000000,0.000000,0.006086,58304.664000
0.130320,0.000000,0.000000,0.022537,0.000000,0.000000,0.000000,0.000000,0.000000,3.000000,12.253045,0.000000,-0.000000,0.000000,0.004015,58319.694000
0.138407,0.000000,0.000000,0.025419,0.000000,0.000000,0.000000,0.000000,0.000000,3.000000,12.220527,0.000000,-0.000000,0.000000,0.008087,62407.125000
0.144042,0.000000,0.000000,0.027537,0.000000,0.000000,0.000000,0.000000,0.000000,3.000000,12.198034,0.000000,-0.000000,0.000000,0.005635,64041.771000
0.149120,0.000000,0.000000,0.029516,0.000000,0.000000,0.000000,0.000000,0.000000,3.000000,12.177863,0.000000,-0.000000,0.000000,0.005079,65120.452000
0.153332,0.000000,0.000000,0.031208,0.000000,0.000000,0.000000,0.000000,0.000000,3.000000,12.161213,0.000000,-0.000000,0.000000,0.004212,65332.057000
0.160707,0.000000,0.000000,0.034245,0.000000,0.000000,0.000000,0.000000,0.000000,3.000000,12.132165,0.000000,-0.000000,0.000000,0.007375,68707.301000
0.168110,0.000000,0.000000,0.037421,0.000000,0.000000,0.000000,0.000000,0.000000,3.000000,12.103201,0.000000,-0.000000,0.000000,0.007403,72110.452000
0.176702,0.000000,0.000000,0.041255,0.000000,0.000000,0.000000,0.000000,0.000000,3.000000,12.069813,0.000000,-0.000000,0.000000,0.008592,76702.347000
0.187230,0.000000,0.000000,0.046161,0.000000,0.000000,0.000000,0.000000,0.000000,3.000000,12.029222,0.000000,-0.000000,0.000000,0.010528,83229.915000
0.198428,0.000000,0.000000,0.051645,0.000000,0.000000,0.000000,0.000000,0.000000,3.000000,11.986462,0.000000,-0.000000,0.000000,0.011198,90427.966000
0.210764,0.000000,0.000000,0.057993,0.000000,0.000000,0.000000,0.000000,0.000000,3.000000,11.939839,0.000000,-0.000000,0.000000,0.012336,98764.206000
0.223100,0.000000,0.000000,0.064672,0.000000,0.000000,0.000000,0.000000,0.000000,3.000000,11.893750,0.000000,-0.000000,0.000000,0.012336,107099.945000
0.234470,0.000000,0.000000,0.071127,0.000000,0.000000,0.000000,0.000000,0.000000,3.000000,11.851755,0.000000,-0.000000,0.000000,0.011370,114470.386000
0.248158,0.000000,0.000000,0.079222,0.000000,0.000000,0.000000,0.000000,0.000000,3.000000,11.801741,0.000000,-0.000000,0.000000,0.013688,124157.963000
0.256432,0.000000,0.000000,0.084347,0.000000,0.000000,0.000000,0.000000,0.000000,3.000000,11.771895,0.000000,-0.000000,0.000000,0.008274,128432.283000
0.271174,0.000000,0.000000,0.093720,0.000000,0.000000,0.000000,0.000000,0.000000,3.000000,11.719139,0.000000,-0.000000,0.000000,0.014742,139173.937000
0.281253,0.000000,0.000000,0.100420,0.000000,0.000000,0.000000,0.000000,0.000000,3.000000,11.683577,0.000000,-0.000000,0.000000,0.010079,145252.651000
0.294945,0.000000,0.000000,0.109786,0.000000,0.000000,0.000000,0.000000,0.000000,3.000000,11.635730,0.000000,-0.000000,0.000000,0.013693,154945.321000
0.307243,0.000000,0.000000,0.118513,0.000000,0.000000,0.000000,0.000000,0.000000,3.000000,11.593325,0.000000,-0.000000,0.000000,0.012298,163242.875000
0.318688,0.000000,0.000000,0.126892,0.000000,0.000000,0.000000,0.000000,0.000000,3.000000,11.554331,0.000000,-0.000000,0.000000,0.011445,170687.834000
0.332644,0.000000,0.000000,0.137394,0.000000,0.000000,0.000000,0.000000,0.000000,3.000000,11.507313,0.000000,-0.000000,0.000000,0.013956,180643.968000
0.345800,0.000000,0.000000,0.147615,0.000000,0.000000,0.000000,0.000000,0.000000,3.000000,11.463596,0.000000,-0.000000,0.000000,0.013156,189800.395000
0.358123,0.000000,0.000000,0.157463,0.000000,0.000000,0.000000,0.000000,0.000000,3.000000,11.423182,0.000000,-0.000000,0.000000,0.012323,198123.097000
0.371377,0.000000,0.000000,0.168326,0.000000,0.000000,0.000000,0.000000,0.000000,3.000000,11.380250,0.000000,-0.000000,0.000000,0.013253,207376.543000
0.382726,0.000000,0.000000,0.177870,0.000000,0.000000,0.000000,0.000000,0.000000,3.000000,11.343973,0.000000,-0.000000,0.000000,0.011350,214726.132000
0.397520,0.000000,0.000000,0.190575,0.000000,0.000000,0.000000,0.000000,0.000000,3.000000,11.297228,0.000000,-0.000000,0.000000,0.014794,225520.175000
0.409590,0.000000,0.000000,0.201214,0.000000,0.000000,0.000000,0.000000,0.000000,3.000000,11.259663,0.000000,-0.000000,0.000000,0.012070,233589.969000
0.418574,0.000000,0.000000,0.209294,0.000000,0.000000,0.000000,0.000000,0.000000,3.000000,11.232046,0.000000,-0.000000,0.000000,0.008984,238574.106000
0.437220,0.000000,0.000000,0.226308,0.000000,0.000000,0.000000,0.000000,0.000000,3.000000,11.175261,0.000000,-0.000000,0.000000,0.018646,253220.124000
0.449405,0.000000,0.000000,0.237749,0.000000,0.000000,0.000000,0.000000,0.000000,3.000000,11.138866,0.000000,-0.000000,0.000000,0.012185,261404.881000
0.462012,0.000000,0.000000,0.249796,0.000000,0.000000,0.000000,0.000000,0.000000,3.000000,11.101688,0.000000,-0.000000,0.000000,0.012608,270012.381000
0.474143,0.000000,0.000000,0.261591,0.000000,0.000000,0.000000,0.000000,0.000000,3.000000,11.066391,0.000000,-0.000000,0.000000,0.012130,278142.509000
0.484969,0.000000,0.000000,0.272288,0.000000,0.000000,0.000000,0.000000,0.000000,3.000000,11.035290,0.000000,-0.000000,0.000000,0.010827,284969.133000
0.499207,0.000000,0.000000,0.286549,0.000000,0.000000,0.000000,0.000000,0.000000,3.000000,10.994860,0.000000,-0.000000,0.000000,0.014238,295207.415000
0.510333,0.000000,0.000000,0.297886,0.000000,0.000000,0.000000,0.000000,0.000000,3.000000,10.963750,0.000000,-0.000000,0.000000,0.011125,302332.596000
0.523431,0.000000,0.000000,0.311407,0.000000,0.000000,0.000000,0.000000,0.000000,3.000000,10.927560,0.000000,-0.000000,0.000000,0.013099,311431.263000
0.535281,0.000000,0.000000,0.323819,0.000000,0.000000,0.000000,0.000000,0.000000,3.000000,10.895284,0.000000,-0.000000,0.000000,0.011850,319281.427000
0.547935,0.000000,0.000000,0.337239,0.000000,0.000000,0.000000,0.000000,0.000000,3.000000,10.861263,0.000000,-0.000000,0.000000,0.012654,327935.483000
0.561191,0.000000,0.000000,0.351481,0.000000,0.000000,0.000000,0.000000,0.000000,3.000000,10.826118,0.000000,-0.000000,0.000000,0.013256,337191.410000
0.568629,0.000000,0.000000,0.359574,0.000000,0.000000,0.000000,0.000000,0.000000,3.000000,10.806689,0.000000,-0.000000,0.000000,0.007437,340628.561000
0.577586,0.000000,0.000000,0.369390,0.000000,0.000000,0.000000,0.000000,0.000000,3.000000,10.783481,0.000000,-0.000000,0.000000,0.008958,345586.273000
0.585840,0.000000,0.000000,0.378509,0.000000,0.000000,0.000000,0.000000,0.000000,3.000000,10.762311,0.000000,-0.000000,0.000000,0.008254,349839.908000
0.604191,0.000000,0.000000,0.398930,0.000000,0.000000,0.000000,0.000000,0.000000,3.000000,10.715675,0.000000,-0.000000,0.000000,0.018351,364191.128000
0.615322,0.000000,0.000000,0.411511,0.000000,0.000000,0.000000,0.000000,0.000000,3.000000,10.687973,0.000000,-0.000000,0.000000,0.011131,371322.216000
0.626125,0.000000,0.000000,0.423830,0.000000,0.000000,0.000000,0.000000,0.000000,3.000000,10.661427,0.000000,-0.000000,0.000000,0.010803,378125.025000
0.635410,0.000000,0.000000,0.434505,0.000000,0.000000,0.000000,0.000000,0.000000,3.000000,10.638893,0.000000,-0.000000,0.000000,0.009285,383409.682000
0.650831,0.000000,0.000000,0.452359,0.000000,0.000000,0.000000,0.000000,0.000000,3.000000,10.601866,0.000000,-0.000000,0.000000,0.015421,394830.893000
0.666212,0.000000,0.000000,0.470362,0.000000,0.000000,0.000000,0.000000,0.000000,3.000000,10.565594,0.000000,-0.000000,0.000000,0.015381,406211.549000
0.681185,0.000000,0.000000,0.488071,0.000000,0.000000,0.000000,0.000000,0.000000,3.000000,10.530914,0.000000,-0.000000,0.000000,0.014973,417184.611000
0.698611,0.000000,0.000000,0.508878,0.000000,0.000000,0.000000,0.000000,0.000000,3.000000,10.491264,0.000000,-0.000000,0.000000,0.017426,430610.662000
0.714475,0.000000,0.000000,0.528019,0.000000,0.000000,0.000000,0.000000,0.000000,3.000000,10.455911,0.000000,-0.000000,0.000000,0.015864,442475.041000
0.731127,0.000000,0.000000,0.548291,0.000000,0.000000,0.000000,0.000000,0.000000,3.000000,10.419505,0.000000,-0.000000,0.000000,0.016652,455126.997000
0.746463,0.000000,0.000000,0.567126,0.000000,0.000000,0.000000,0.000000,0.000000,3.000000,10.386649,0.000000,-0.000000,0.000000,0.015336,466463.190000
0.757230,0.000000,0.000000,0.580450,0.000000,0.000000,0.000000,0.000000,0.000000,3.000000,10.364012,0.000000,-0.000000,0.000000,0.010767,473230.166000
0.775699,0.000000,0.000000,0.603420,0.000000,0.000000,0.000000,0.000000,0.000000,3.000000,10.325693,0.000000,-0.000000,0.000000,0.018469,487699.479000
0.789756,0.000000,0.000000,0.621046,0.000000,0.000000,0.000000,0.000000,0.000000,3.000000,10.297195,0.000000,-0.000000,0.000000,0.014056,497755.779000
0.801841,0.000000,0.000000,0.636287,0.000000,0.000000,0.000000,0.000000,0.000000,3.000000,10.273123,0.000000,-0.000000,0.000000,0.012085,505840.517000
0.815034,0.000000,0.000000,0.653004,0.000000,0.000000,0.000000,0.000000,0.000000,3.000000,10.247239,0.000000,-0.000000,0.000000,0.013194,515034.371000
0.827809,0.000000,0.000000,0.669269,0.000000,0.000000,0.000000,0.000000,0.000000,3.000000,10.222596,0.000000,-0.000000,0.000000,0.012775,523809.149000
0.848229,0.000000,0.000000,0.695381,0.000000,0.000000,0.000000,0.000000,0.000000,3.000000,10.183846,0.000000,-0.000000,0.000000,0.020420,540229.264000
0.864985,0.000000,0.000000,0.716948,0.000000,0.000000,0.000000,0.000000,0.000000,3.000000,10.152884,0.000000,-0.000000,0.000000,0.016755,552984.738000
0.879751,0.000000,0.000000,0.736048,0.000000,0.000000,0.000000,0.000000,0.000000,3.000000,10.126188,0.000000,-0.000000,0.000000,0.014767,563751.411000
0.895728,0.000000,0.000000,0.756794,0.000000,0.000000,0.000000,0.000000,0.000000,3.000000,10.097865,0.000000,-0.000000,0.000000,0.015977,575727.994000
0.911445,0.000000,0.000000,0.777282,0.000000,0.000000,0.000000,0.000000,0.000000,3.000000,10.070591,0.000000,-0.000000,0.000000,0.015717,587444.947000
0.925625,0.000000,0.000000,0.795831,0.000000,0.000000,0.000000,0.000000,0.000000,3.000000,10.046499,0.000000,-0.000000,0.000000,0.014180,597625.007000
0.940094,0.000000,0.000000,0.814811,0.000000,0.000000,0.000000,0.000000,0.000000,3.000000,10.022387,0.000000,-0.000000,0.000000,0.014469,608094.068000
0.954709,0.000000,0.000000,0.834032,0.000000,0.000000,0.000000,0.000000,0.000000,3.000000,9.998508,0.000000,-0.000000,0.000000,0.014615,618708.684000
0.969811,0.000000,0.000000,0.853942,0.000000,0.000000,0.000000,0.000000,0.000000,3.000000,9.974329,0.000000,-0.000000,0.000000,0.015102,629810.969000
0.983777,0.000000,0.000000,0.872393,0.000000,0.000000,0.000000,0.000000,0.000000,3.000000,9.952435,0.000000,-0.000000,0.000000,0.013967,639777.491000
1.000218,0.000000,0.000000,0.894152,0.000000,0.000000,0.000000,0.000000,0.000000,3.000000,9.927163,0.000000,-0.000000,0.000000,0.016441,652218.150000
1.015084,0.000000,0.000000,0.913860,0.000000,0.000000,0.000000,0.000000,0.000000,3.000000,9.904842,0.000000,-0.000000,0.000000,0.014865,663083.638000
1.028755,0.000000,0.000000,0.932009,0.000000,0.000000,0.000000,0.000000,0.000000,3.000000,9.884748,0.000000,-0.000000,0.000000,0.013671,672754.992000
1.044729,0.000000,0.000000,0.953237,0.000000,0.000000,0.000000,0.000000,0.000000,3.000000,9.861731,0.000000,-0.000000,0.000000,0.015974,684729.354000
1.057695,0.000000,0.000000,0.970481,0.000000,0.000000,0.000000,0.000000,0.000000,3.000000,9.843480,0.000000,-0.000000,0.000000,0.012965,693694.502000
1.068853,0.000000,0.000000,0.985330,0.000000,0.000000,0.000000,0.000000,0.000000,3.000000,9.828071,0.000000,-0.000000,0.000000,0.011159,700853.479000
1.084243,0.000000,0.000000,1.005814,0.000000,0.000000,0.000000,0.000000,0.000000,3.000000,9.807169,0.000000,-0.000000,0.000000,0.015389,712242.746000
1.099407,0.000000,0.000000,1.026003,0.000000,0.000000,0.000000,0.000000,0.000000,3.000000,9.787045,0.000000,-0.000000,0.000000,0.015165,723407.327000
1.113474,0.000000,0.000000,1.044730,0.000000,0.000000,0.000000,0.000000,0.000000,3.000000,9.768803,0.000000,-0.000000,0.000000,0.014066,733473.683000
1.127977,0.000000,0.000000,1.064034,0.000000,0.000000,0.000000,0.000000,0.000000,3.000000,9.750395,0.000000,-0.000000,0.000000,0.014503,743977.114000
1.141432,0.000000,0.000000,1.081934,0.000000,0.000000,0.000000,0.000000,0.000000,3.000000,9.733698,0.000000,-0.000000,0.000000,0.013455,753431.968000
1.155884,0.000000,0.000000,1.101148,0.000000,0.000000,0.000000,0.000000,0.000000,3.000000,9.716137,0.000000,-0.000000,0.000000,0.014452,763883.732000
1.170816,0.000000,0.000000,1.120986,0.000000,0.000000,0.000000,0.000000,0.000000,3.000000,9.698402,0.000000,-0.000000,0.000000,0.014932,774816.091000
1.187455,0.000000,0.000000,1.143066,0.000000,0.000000,0.000000,0.000000,0.000000,3.000000,9.679107,0.000000,-0.000000,0.000000,0.016639,787454.750000
1.198520,0.000000,0.000000,1.157731,0.000000,0.000000,0.000000,0.000000,0.000000,3.000000,9.666615,0.000000,-0.000000,0.000000,0.011066,794520.282000
1.213341,0.000000,0.000000,1.177349,0.000000,0.000000,0.000000,0.000000,0.000000,3.000000,9.650184,0.000000,-0.000000,0.000000,0.014820,805340.640000
1.231254,0.000000,0.000000,1.201025,0.000000,0.000000,0.000000,0.000000,0.000000,3.000000,9.630802,0.000000,-0.000000,0.000000,0.017914,819254.396000
1.246076,0.000000,0.000000,1.220572,0.000000,0.000000,0.000000,0.000000,0.000000,3.000000,9.615239,0.000000,-0.000000,0.000000,0.014822,830076.199000
1.259614,0.000000,0.000000,1.238389,0.000000,0.000000,0.000000,0.000000,0.000000,3.000000,9.601377,0.000000,-0.000000,0.000000,0.013537,839613.571000
1.273076,0.000000,0.000000,1.256071,0.000000,0.000000,0.000000,0.000000,0.000000,3.000000,9.587908,0.000000,-0.000000,0.000000,0.013462,849075.907000
1.287301,0.000000,0.000000,1.274716,0.000000,0.000000,0.000000,0.000000,0.000000,3.000000,9.574002,0.000000,-0.000000,0.000000,0.014225,859300.948000
1.305108,0.000000,0.000000,1.297999,0.000000,0.000000,0.000000,0.000000,0.000000,3.000000,9.557022,0.000000,-0.000000,0.000000,0.017807,873107.944000
1.318001,0.000000,0.000000,1.314802,0.000000,0.000000,0.000000,0.000000,0.000000,3.000000,9.545112,0.000000,-0.000000,0.000000,0.012893,882000.778000
1.333330,0.000000,0.000000,1.334732,0.000000,0.000000,0.000000,0.000000,0.000000,3.000000,9.531273,0.000000,-0.000000,0.000000,0.015330,893330.341000
1.348588,0.000000,0.000000,1.354506,0.000000,0.000000,0.000000,0.000000,0.000000,3.000000,9.517878,0.000000,-0.000000,0.000000,0.015258,904588.367000
1.363754,0.000000,0.000000,1.374096,0.000000,0.000000,0.000000,0.000000,0.000000,3.000000,9.504933,0.000000,-0.000000,0.000000,0.015165,915753.708000
1.378652,0.000000,0.000000,1.393275,0.000000,0.000000,0.000000,0.000000,0.000000,3.000000,9.492572,0.000000,-0.000000,0.000000,0.014898,926652.195000
1.392659,0.000000,0.000000,1.411242,0.000000,0.000000,0.000000,0.000000,0.000000,3.000000,9.481274,0.000000,-0.000000,0.000000,0.014007,936658.866000
1.407474,0.000000,0.000000,1.430181,0.000000,0.000000,0.000000,0.000000,0.000000,3.000000,9.469641,0.000000,-0.000000,0.000000,0.014815,947474.224000
1.422474,0.000000,0.000000,1.449282,0.000000,0.000000,0.000000,0.000000,0.000000,3.000000,9.458198,0.000000,-0.000000,0.000000,0.014999,958473.545000
1.437430,0.000000,0.000000,1.468252,0.000000,0.000000,0.000000,0.000000,0.000000,3.000000,9.447120,0.000000,-0.000000,0.000000,0.014957,969430.274000
1.452864,0.000000,0.000000,1.487746,0.000000,0.000000,0.000000,0.000000,0.000000,3.000000,9.436027,0.000000,-0.000000,0.000000,0.015433,980863.541000
1.467748,0.000000,0.000000,1.506463,0.000000,0.000000,0.000000,0.000000,0.000000,3.000000,9.425659,0.000000,-0.000000,0.000000,0.014884,991747.955000
1.482446,0.000000,0.000000,1.524863,0.000000,0.000000,0.000000,0.000000,0.000000,3.000000,9.415732,0.000000,-0.000000,0.000000,0.014698,1002446.016000
1.499289,0.000000,0.000000,1.545855,0.000000,0.000000,0.000000,0.000000,0.000000,3.000000,9.404702,0.000000,-0.000000,0.000000,0.016843,1015289.232000
1.513198,0.000000,0.000000,1.563097,0.000000,0.000000,0.000000,0.000000,0.000000,3.000000,9.395916,0.000000,-0.000000,0.000000,0.013909,1025198.068000
1.529319,0.000000,0.000000,1.582989,0.000000,0.000000,0.000000,0.000000,0.000000,3.000000,9.386036,0.000000,-0.000000,0.000000,0.016121,1037318.837000
1.544099,0.000000,0.000000,1.601129,0.000000,0.000000,0.000000,0.000000,0.000000,3.000000,9.377295,0.000000,-0.000000,0.000000,0.014780,1048098.603000
1.558306,0.000000,0.000000,1.618477,0.000000,0.000000,0.000000,0.000000,0.000000,3.000000,9.369169,0.000000,-0.000000,0.000000,0.014208,1058306.163000
1.571788,0.000000,0.000000,1.634857,0.000000,0.000000,0.000000,0.000000,0.000000,3.000000,9.361705,0.000000,-0.000000,0.000000,0.013482,1067788.313000
1.586764,0.000000,0.000000,1.652961,0.000000,0.000000,0.000000,0.000000,0.000000,3.000000,9.353670,0.000000,-0.000000,0.000000,0.014976,1078763.875000
1.602136,0.000000,0.000000,1.671442,0.000000,0.000000,0.000000,0.000000,0.000000,3.000000,9.345711,0.000000,-0.000000,0.000000,0.015372,1090135.642000
1.619524,0.000000,0.000000,1.692225,0.000000,0.000000,0.000000,0.000000,0.000000,3.000000,9.337038,0.000000,-0.000000,0.000000,0.017388,1103524.137000
1.632365,0.000000,0.000000,1.707469,0.000000,0.000000,0.000000,0.000000,0.000000,3.000000,9.330904,0.000000,-0.000000,0.000000,0.012840,1112364.637000
1.647560,0.000000,0.000000,1.725416,0.000000,0.000000,0.000000,0.000000,0.000000,3.000000,9.323877,0.000000,-0.000000,0.000000,0.015196,1123560.348000
1.661873,0.000000,0.000000,1.742216,0.000000,0.000000,0.000000,0.000000,0.000000,3.000000,9.317513,0.000000,-0.000000,0.000000,0.014312,1133872.594000
1.676681,0.000000,0.000000,1.759496,0.000000,0.000000,0.000000,0.000000,0.000000,3.000000,9.311173,0.000000,-0.000000,0.000000,0.014809,1144681.303000
1.691976,0.000000,0.000000,1.777231,0.000000,0.000000,0.000000,0.000000,0.000000,3.000000,9.304882,0.000000,-0.000000,0.000000,0.015295,1155976.014000
1.706735,0.000000,0.000000,1.794232,0.000000,0.000000,0.000000,0.000000,0.000000,3.000000,9.299064,0.000000,-0.000000,0.000000,0.014759,1166734.909000
1.719670,0.000000,0.000000,1.809035,0.000000,0.000000,0.000000,0.000000,0.000000,3.000000,9.294173,0.000000,-0.000000,0.000000,0.012935,1175669.762000
1.734408,0.000000,0.000000,1.825805,0.000000,0.000000,0.000000,0.000000,0.000000,3.000000,9.288807,0.000000,-0.000000,0.000000,0.014738,1186407.749000
1.750390,0.000000,0.000000,1.843869,0.000000,0.000000,0.000000,0.000000,0.000000,3.000000,9.283237,0.000000,-0.000000,0.000000,0.015982,1198390.184000
1.763856,0.000000,0.000000,1.858977,0.000000,0.000000,0.000000,0.000000,0.000000,3.000000,9.278770,0.000000,-0.000000,0.000000,0.013465,1207855.575000
1.777443,0.000000,0.000000,1.874124,0.000000,0.000000,0.000000,0.000000,0.000000,3.000000,9.274449,0.000000,-0.000000,0.000000,0.013587,1217442.985000
1.791013,0.000000,0.000000,1.889155,0.000000,0.000000,0.000000,0.000000,0.000000,3.000000,9.270321,0.000000,-0.000000,0.000000,0.013570,1227013.117000
1.809196,0.000000,0.000000,1.909162,0.000000,0.000000,0.000000,0.000000,0.000000,3.000000,9.265032,0.000000,-0.000000,0.000000,0.018183,1241195.837000
1.825222,0.000000,0.000000,1.926640,0.000000,0.000000,0.000000,0.000000,0.000000,3.000000,9.260655,0.000000,-0.000000,0.000000,0.016027,1253222.384000
1.836432,0.000000,0.000000,1.938767,0.000000,0.000000,0.000000,0.000000,0.000000,3.000000,9.257766,0.000000,-0.000000,0.000000,0.011210,1260432.416000
1.853235,0.000000,0.000000,1.956840,0.000000,0.000000,0.000000,0.000000,0.000000,3.000000,9.253611,0.000000,-0.000000,0.000000,0.016802,1273234.873000
1.877617,0.000000,0.000000,1.982840,0.000000,0.000000,0.000000,0.000000,0.000000,3.000000,9.247960,0.000000,-0.000000,0.000000,0.024382,1293617.018000
1.898237,0.000000,0.000000,2.004549,0.000000,0.000000,0.000000,0.000000,0.000000,3.000000,9.243635,0.000000,-0.000000,0.000000,0.020620,1310237.041000
1.916648,0.000000,0.000000,2.023719,0.000000,0.000000,0.000000,0.000000,0.000000,3.000000,9.240106,0.000000,-0.000000,0.000000,0.018411,1324648.335000
1.940134,0.000000,0.000000,2.047928,0.000000,0.000000,0.000000,0.000000,0.000000,3.000000,9.235973,0.000000,-0.000000,0.000000,0.023485,1344133.625000
1.959157,0.000000,0.000000,2.067282,0.000000,0.000000,0.000000,0.000000,0.000000,3.000000,9.233000,0.000000,-0.000000,0.000000,0.019023,1359156.829000
1.975471,0.000000,0.000000,2.083701,0.000000,0.000000,0.000000,0.000000,0.000000,3.000000,9.230700,0.000000,-0.000000,0.000000,0.016314,1371470.839000
1.991073,0.000000,0.000000,2.099257,0.000000,0.000000,0.000000,0.000000,0.000000,3.000000,9.228701,0.000000,-0.000000,0.000000,0.015602,1383072.811000
2.012028,0.000000,0.000000,2.119962,0.000000,0.000000,0.000000,0.000000,0.000000,3.000000,9.226269,0.000000,-0.000000,0.000000,0.020956,1400028.446000
2.034200,0.000000,0.000000,2.141598,0.000000,0.000000,0.000000,0.000000,0.000000,3.000000,9.224046,0.000000,-0.000000,0.000000,0.022172,1418200.103000
2.050172,0.000000,0.000000,2.156978,0.000000,0.000000,0.000000,0.000000,0.000000,3.000000,9.222704,0.000000,-0.000000,0.000000,0.015972,1430171.779000
2.067400,0.000000,0.000000,2.173406,0.000000,0.000000,0.000000,0.000000,0.000000,3.000000,9.221454,0.000000,-0.000000,0.000000,0.017228,1443400.033000
2.081450,0.000000,0.000000,2.186661,0.000000,0.000000,0.000000,0.000000,0.000000,3.000000,9.220602,0.000000,-0.000000,0.000000,0.014050,1453450.222000
2.095415,0.000000,0.000000,2.199720,0.000000,0.000000,0.000000,0.000000,0.000000,3.000000,9.219889,0.000000,-0.000000,0.000000,0.013965,1463414.948000
2.109377,0.000000,0.000000,2.212662,0.000000,0.000000,0.000000,0.000000,0.000000,3.000000,9.219306,0.000000,-0.000000,0.000000,0.013962,1473377.155000
2.124253,0.000000,0.000000,2.226329,0.000000,0.000000,0.000000,0.000000,0.000000,3.000000,9.218821,0.000000,-0.000000,0.000000,0.014876,1484253.272000
2.137665,0.000000,0.000000,2.238532,0.000000,0.000000,0.000000,0.000000,0.000000,3.000000,9.218510,0.000000,-0.000000,0.000000,0.013412,1493665.478000
2.151598,0.000000,0.000000,2.251099,0.000000,0.000000,0.000000,0.000000,0.000000,3.000000,9.218305,0.000000,-0.000000,0.000000,0.013932,1503597.593000
2.163926,0.000000,0.000000,2.262117,0.000000,0.000000,0.000000,0.000000,0.000000,3.000000,9.218228,0.000000,-0.000000,0.000000,0.012328,1511925.684000
2.174123,0.000000,0.000000,2.271156,0.000000,0.000000,0.000000,0.000000,0.000000,3.000000,9.218241,0.000000,-0.000000,0.000000,0.010197,1518122.806000
2.186414,0.000000,0.000000,2.281977,0.000000,0.000000,0.000000,0.000000,0.000000,3.000000,9.218330,0.000000,-0.000000,0.000000,0.012292,1526414.453000
2.203254,0.000000,0.000000,2.296680,0.000000,0.000000,0.000000,0.000000,0.000000,3.000000,9.218572,0.000000,-0.000000,0.000000,0.016839,1539253.798000
2.217431,0.000000,0.000000,2.308918,0.000000,0.000000,0.000000,0.000000,0.000000,3.000000,9.218912,0.000000,-0.000000,0.000000,0.014177,1549430.821000
2.229432,0.000000,0.000000,2.319176,0.000000,0.000000,0.000000,0.000000,0.000000,3.000000,9.219295,0.000000,-0.000000,0.000000,0.012002,1557432.486000
2.241748,0.000000,0.000000,2.329616,0.000000,0.000000,0.000000,0.000000,0.000000,3.000000,9.219767,0.000000,-0.000000,0.000000,0.012315,1565747.873000
2.255627,0.000000,0.000000,2.341280,0.000000,0.000000,0.000000,0.000000,0.000000,3.000000,9.220390,0.000000,-0.000000,0.000000,0.013879,1575626.766000
2.272022,0.000000,0.000000,2.354924,0.000000,0.000000,0.000000,0.000000,0.000000,3.000000,9.221246,0.000000,-0.000000,0.000000,0.016396,1588022.276000
2.285996,0.000000,0.000000,2.366418,0.000000,0.000000,0.000000,0.000000,0.000000,3.000000,9.222093,0.000000,-0.000000,0.000000,0.013973,1597995.558000
2.300166,0.000000,0.000000,2.377957,0.000000,0.000000,0.000000,0.000000,0.000000,3.000000,9.223049,0.000000,-0.000000,0.000000,0.014170,1608165.803000
2.313615,0.000000,0.000000,2.388798,0.000000,0.000000,0.000000,0.000000,0.000000,3.000000,9.224051,0.000000,-0.000000,0.000000,0.013449,1617615.083000
2.328308,0.000000,0.000000,2.400524,0.000000,0.000000,0.000000,0.000000,0.000000,3.000000,9.225238,0.000000,-0.000000,0.000000,0.014693,1628308.125000
2.343313,0.000000,0.000000,2.412371,0.000000,0.000000,0.000000,0.000000,0.000000,3.000000,9.226553,0.000000,-0.000000,0.000000,0.015005,1639313.280000
2.357360,0.000000,0.000000,2.423337,0.000000,0.000000,0.000000,0.000000,0.000000,3.000000,9.227880,0.000000,-0.000000,0.000000,0.014046,1649359.691000
2.372194,0.000000,0.000000,2.434797,0.000000,0.000000,0.000000,0.000000,0.000000,3.000000,9.229373,0.000000,-0.000000,0.000000,0.014834,1660193.568000
2.386316,0.000000,0.000000,2.445585,0.000000,0.000000,0.000000,0.000000,0.000000,3.000000,9.230885,0.000000,-0.000000,0.000000,0.014122,1670315.924000
2.400663,0.000000,0.000000,2.456426,0.000000,0.000000,0.000000,0.000000,0.000000,3.000000,9.232506,0.000000,-0.000000,0.000000,0.014347,1680662.651000
2.415346,0.000000,0.000000,2.467400,0.000000,0.000000,0.000000,0.000000,0.000000,3.000000,9.234251,0.000000,-0.000000,0.000000,0.014683,1691345.601000
2.432576,0.000000,0.000000,2.480132,0.000000,0.000000,0.000000,0.000000,0.000000,3.000000,9.236401,0.000000,-0.000000,0.000000,0.017231,1704576.466000
2.447230,0.000000,0.000000,2.490813,0.000000,0.000000,0.000000,0.000000,0.000000,3.000000,9.238326,0.000000,-0.000000,0.000000,0.014653,1715229.527000
2.463549,0.000000,0.000000,2.502573,0.000000,0.000000,0.000000,0.000000,0.000000,3.000000,9.240561,0.000000,-0.000000,0.000000,0.016319,1727548.612000
2.480593,0.000000,0.000000,2.514695,0.000000,0.000000,0.000000,0.000000,0.000000,3.000000,9.242996,0.000000,-0.000000,0.000000,0.017044,1740592.550000
2.496771,0.000000,0.000000,2.526045,0.000000,0.000000,0.000000,0.000000,0.000000,3.000000,9.245407,0.000000,-0.000000,0.000000,0.016179,1752771.245000
2.511824,0.000000,0.000000,2.536467,0.000000,0.000000,0.000000,0.000000,0.000000,3.000000,9.247732,0.000000,-0.000000,0.000000,0.015053,1763824.308000
2.530166,0.000000,0.000000,2.549011,0.000000,0.000000,0.000000,0.000000,0.000000,3.000000,9.250659,0.000000,-0.000000,0.000000,0.018342,1778166.472000
2.547388,0.000000,0.000000,2.560610,0.000000,0.000000,0.000000,0.000000,0.000000,3.000000,9.253509,0.000000,-0.000000,0.000000,0.017221,1791387.633000
2.565504,0.000000,0.000000,2.572638,0.000000,0.000000,0.000000,0.000000,0.000000,3.000000,9.256603,0.000000,-0.000000,0.000000,0.018116,1805504.112000
2.580404,0.000000,0.000000,2.582380,0.000000,0.000000,0.000000,0.000000,0.000000,3.000000,9.259229,0.000000,-0.000000,0.000000,0.014900,1816403.674000
2.601809,0.000000,0.000000,2.596199,0.000000,0.000000,0.000000,0.000000,0.000000,3.000000,9.263094,0.000000,-0.000000,0.000000,0.021406,1833809.218000
2.616294,0.000000,0.000000,2.605380,0.000000,0.000000,0.000000,0.000000,0.000000,3.000000,9.265796,0.000000,-0.000000,0.000000,0.014484,1844293.630000
2.639902,0.000000,0.000000,2.620156,0.000000,0.000000,0.000000,0.000000,0.000000,3.000000,9.270291,0.000000,-0.000000,0.000000,0.023608,1863902.051000
2.651191,0.000000,0.000000,2.627076,0.000000,0.000000,0.000000,0.000000,0.000000,3.000000,9.272511,0.000000,-0.000000,0.000000,0.011289,1871190.676000
2.668616,0.000000,0.000000,2.637653,0.000000,0.000000,0.000000,0.000000,0.000000,3.000000,9.275983,0.000000,-0.000000,0.000000,0.017426,1884616.394000
2.682663,0.000000,0.000000,2.646046,0.000000,0.000000,0.000000,0.000000,0.000000,3.000000,9.278841,0.000000,-0.000000,0.000000,0.014046,1894662.620000
2.693286,0.000000,0.000000,2.652315,0.000000,0.000000,0.000000,0.000000,0.000000,3.000000,9.281035,0.000000,-0.000000,0.000000,0.010623,1901286.040000
2.703886,0.000000,0.000000,2.658510,0.000000,0.000000,0.000000,0.000000,0.000000,3.000000,9.283251,0.000000,-0.000000,0.000000,0.010600,1907885.681000
2.715236,0.000000,0.000000,2.665080,0.000000,0.000000,0.000000,0.000000,0.000000,3.000000,9.285649,0.000000,-0.000000,0.000000,0.011351,1915236.233000
2.727548,0.000000,0.000000,2.672133,0.000000,0.000000,0.000000,0.000000,0.000000,3.000000,9.288280,0.000000,-0.000000,0.000000,0.012312,1923548.195000
2.743191,0.000000,0.000000,2.680993,0.000000,0.000000,0.000000,0.000000,0.000000,3.000000,9.291662,0.000000,-0.000000,0.000000,0.015643,1935190.870000
2.756133,0.000000,0.000000,2.688218,0.000000,0.000000,0.000000,0.000000,0.000000,3.000000,9.294500,0.000000,-0.000000,0.000000,0.012943,1944133.408000
2.768993,0.000000,0.000000,2.695310,0.000000,0.000000,0.000000,0.000000,0.000000,3.000000,9.297351,0.000000,-0.000000,0.000000,0.012859,1952992.538000
2.785487,0.000000,0.000000,2.704298,0.000000,0.000000,0.000000,3.000000,0.000000,3.000000,9.772896,0.000000,-2.496074,0.000000,0.016495,1965487.197000
2.795569,0.000000,0.000000,2.709706,0.000000,0.000000,0.000000,3.000000,0.000000,3.000000,9.768282,0.000000,2.617532,0.000000,0.010082,1971569.004000
2.809310,0.000000,0.000000,2.717072,0.000000,-0.028112,0.000000,3.000000,0.000000,3.000000,9.762091,0.000000,-4.469422,0.000000,0.013741,1981309.525000
2.826175,0.000000,0.000000,2.726103,0.000000,-0.013301,0.000000,3.000000,0.000000,3.000000,9.752611,0.000000,10.736621,0.000000,0.016866,1994175.149000
2.838553,0.000057,0.000000,2.732721,0.000000,-0.078291,0.000000,3.000000,0.000000,3.000000,9.746585,0.000000,-15.755383,0.000000,0.012378,2002553.462000
2.857168,0.000173,0.000000,2.742659,0.000000,0.025109,0.000000,3.000000,0.000000,3.000000,9.733056,0.000000,43.042664,0.000000,0.018615,2017168.239000
2.872139,0.000479,0.000000,2.750626,0.000000,-0.248701,0.000000,3.000000,0.000000,3.000000,9.728763,0.000000,-85.745651,0.000000,0.014971,2028139.153000
2.885645,0.000706,0.000000,2.757797,0.000000,0.211836,0.000000,3.000000,0.000000,3.000000,9.714486,0.000000,145.982330,0.000000,0.013506,2037644.673000
2.900196,0.001420,0.000000,2.765448,0.000000,-0.661991,0.000000,3.000000,0.000000,3.000000,9.726999,0.000000,-278.828461,0.000000,0.014552,2048196.382000
2.913749,0.001683,0.000000,2.772513,0.000000,0.864758,0.000000,3.000000,0.000000,3.000000,9.725298,0.000000,477.097870,0.000000,0.013552,2057748.570000
2.928247,0.003139,0.000000,2.779650,0.000000,-1.955985,0.000000,3.000000,0.000000,3.000000,9.838840,0.000000,-906.356689,0.000000,0.014498,2068246.835000
2.942363,0.003042,0.000000,2.785883,0.000000,3.236203,0.000000,3.000000,0.000000,3.000000,10.049850,0.000000,1652.859741,0.000000,0.014117,2078363.413000
2.959155,0.005087,0.000000,2.790096,0.000000,-8.054644,0.000000,3.000000,0.000000,3.000000,10.518929,0.000000,-3897.798828,0.000000,0.016792,2091155.073000
2.973234,0.007027,0.000000,2.788944,0.000000,14.246447,0.000000,3.000000,0.000000,3.000000,10.707901,0.000000,7077.608887,0.000000,0.014079,2101233.725000
2.985413,0.010473,0.000000,2.785906,0.000000,-20.799517,0.000000,3.000000,0.000000,3.000000,10.952229,0.000000,-10163.092773,0.000000,0.012180,2109413.427000
2.998224,0.012436,0.000000,2.780997,0.000000,32.120560,0.000000,3.000000,0.000000,3.000000,11.168046,0.000000,15876.066406,0.000000,0.012811,2118223.964000
3.016244,0.017546,0.000000,2.770892,0.000000,-84.178467,0.000000,3.000000,0.000000,3.000000,11.257174,0.000000,-41340.765625,0.000000,0.018020,2132243.776000
3.030251,0.019693,0.000000,2.762709,0.000000,151.207336,0.000000,3.000000,0.000000,3.000000,11.615469,0.000000,74471.343750,0.000000,0.014007,2142250.761000
3.044925,0.023331,0.000000,2.750270,0.000000,-293.015076,0.000000,3.000000,0.000000,3.000000,11.632124,0.000000,-144084.546875,0.000000,0.014674,2152924.582000
3.058556,0.025784,0.000000,2.738883,0.000000,505.405823,0.000000,3.000000,0.000000,3.000000,12.032679,0.000000,248740.140625,0.000000,0.013632,2162556.325000
3.073674,0.026707,0.000000,2.722645,0.000000,-1023.170837,0.000000,3.000000,0.000000,3.000000,12.534052,0.000000,-503317.656250,0.000000,0.015117,2173673.665000
3.086932,0.026599,0.000000,2.704207,0.000000,1689.569824,0.000000,3.000000,0.000000,3.000000,12.659227,0.000000,831352.125000,0.000000,0.013259,2182932.389000
3.100013,0.024677,0.000000,2.685511,0.000000,-2731.095215,0.000000,3.000000,0.000000,3.000000,12.631642,0.000000,-1343613.125000,0.000000,0.013081,2192013.279000
3.112317,0.024031,0.000000,2.668019,0.000000,3989.212402,0.000000,3.000000,0.000000,3.000000,12.986267,0.000000,1962779.750000,0.000000,0.012304,2200317.389000
3.127743,0.021140,0.000000,2.643039,0.000000,-8318.330078,0.000000,3.000000,0.000000,3.000000,12.950401,0.000000,-4092529.750000,0.000000,0.015425,2211742.730000
3.142816,0.020046,0.000000,2.618822,0.000000,16757.294922,0.000000,3.000000,0.000000,3.000000,12.996913,0.000000,8244680.000000,0.000000,0.015073,2222815.570000
3.155783,0.017660,0.000000,2.598149,0.000000,-26704.474609,0.000000,3.000000,0.000000,3.000000,12.960237,0.000000,-13138508.000000,0.000000,0.012968,2231783.441000
3.173175,0.014343,0.000000,2.571140,0.000000,66182.101562,0.000000,3.000000,0.000000,3.000000,12.975458,0.000000,32561684.000000,0.000000,0.017392,2245175.140000
3.189426,0.014196,0.000000,2.545298,0.000000,-148926.625000,0.000000,3.000000,0.000000,3.000000,13.227273,0.000000,-73271824.000000,0.000000,0.016251,2257426.372000
3.200820,0.011771,0.000000,2.525982,0.000000,190438.062500,0.000000,3.000000,0.000000,3.000000,13.563576,0.000000,93695624.000000,0.000000,0.011394,2264820.072000
3.220772,0.009160,0.000000,2.487403,0.000000,-569478.437500,0.000000,3.000000,0.000000,3.000000,13.757153,0.000000,-280183328.000000,0.000000,0.019952,2280771.853000
3.239358,0.002497,0.000000,2.450548,0.000000,1547447.250000,0.000000,3.000000,0.000000,3.000000,14.107121,0.000000,761344256.000000,0.000000,0.018587,2295358.388000
3.245792,0.001726,0.000000,2.436028,0.000000,-443705.375000,0.000000,3.000000,0.000000,3.000000,14.096733,0.000000,-218302832.000000,0.000000,0.006434,2297792.055000
3.261074,0.000852,0.000000,2.401580,0.000000,912433.500000,0.000000,3.000000,0.000000,3.000000,14.132002,0.000000,448917504.000000,0.000000,0.015282,2309074.044000
3.276163,-0.001860,0.000000,2.367979,0.000000,-1841077.000000,0.000000,3.000000,0.000000,3.000000,14.552459,0.000000,-905809728.000000,0.000000,0.015089,2320162.866000
3.290079,-0.007173,0.000000,2.333979,0.000000,3283234.000000,0.000000,3.000000,0.000000,3.000000,15.082436,0.000000,1615351424.000000,0.000000,0.013917,2330079.480000
3.310175,-0.014978,0.000000,2.278072,0.000000,-9912744.000000,0.000000,3.000000,0.000000,3.000000,14.987645,0.000000,-4877069824.000000,0.000000,0.020096,2346175.483000
3.320158,-0.017404,0.000000,2.250989,0.000000,9877778.000000,0.000000,3.000000,0.000000,3.000000,15.052638,0.000000,4859867136.000000,0.000000,0.009982,2352157.846000
3.337390,-0.019107,0.000000,2.203232,0.000000,-24166082.000000,0.000000,3.000000,0.000000,3.000000,15.300285,0.000000,-11889715200.000000,0.000000,0.017233,2365390.396000
3.354411,-0.024947,0.000000,2.154667,0.000000,58099464.000000,0.000000,3.000000,0.000000,3.000000,15.860936,0.000000,28584933376.000000,0.000000,0.017021,2378411.260000
3.366448,-0.027323,0.000000,2.115718,0.000000,-81760760.000000,0.000000,3.000000,0.000000,3.000000,15.822659,0.000000,-40226295808.000000,0.000000,0.012036,2386447.536000
3.379117,-0.028242,0.000000,2.075053,0.000000,125414984.000000,0.000000,3.000000,0.000000,3.000000,15.776975,0.000000,61704167424.000000,0.000000,0.012670,2395117.166000
3.393889,-0.027500,0.000000,2.028144,0.000000,-245116736.000000,0.000000,3.000000,0.000000,3.000000,16.206203,0.000000,-120597446656.000000,0.000000,0.014772,2405889.394000
3.409121,-0.023980,0.000000,1.975330,0.000000,501582784.000000,0.000000,3.000000,0.000000,3.000000,16.250769,0.000000,246778740736.000000,0.000000,0.015232,2417120.901000
3.418950,-0.019590,0.000000,1.940964,0.000000,-484431680.000000,0.000000,3.000000,0.000000,3.000000,16.661573,0.000000,-238340358144.000000,0.000000,0.009829,2422949.930000
3.428080,-0.016020,0.000000,1.906795,0.000000,400101696.000000,0.000000,3.000000,0.000000,3.000000,17.039740,0.000000,196850040832.000000,0.000000,0.009130,2428079.530000
3.444094,-0.009187,0.000000,1.843057,0.000000,-881365568.000000,0.000000,3.000000,0.000000,3.000000,17.514275,0.000000,-433631854592.000000,0.000000,0.016014,2440093.799000
3.460089,0.001292,0.000000,1.774493,0.000000,1938196480.000000,0.000000,3.000000,0.000000,3.000000,17.689304,0.000000,953592643584.000000,0.000000,0.015995,2452089.216000
3.476118,0.007708,0.000000,1.705139,0.000000,-4275018752.000000,0.000000,3.000000,0.000000,3.000000,18.416088,0.000000,-2103309238272.000000,0.000000,0.016028,2464117.559000
3.494134,0.014130,0.000000,1.619304,0.000000,11128932352.000000,0.000000,3.000000,0.000000,3.000000,18.529858,0.000000,5475435282432.000000,0.000000,0.018016,2478133.797000
3.511075,0.025413,0.000000,1.537620,0.000000,-26578966528.000000,0.000000,3.000000,0.000000,3.000000,18.642918,0.000000,-13076853161984.000000,0.000000,0.016941,2491075.179000
3.529114,0.032721,0.000000,1.450798,0.000000,69310849024.000000,0.000000,3.000000,0.000000,3.000000,18.798031,0.000000,34100939325440.000000,0.000000,0.018039,2505113.843000
3.546624,0.045472,0.000000,1.365056,0.000000,-173415170048.000000,0.000000,3.000000,0.000000,3.000000,18.709175,0.000000,-85320263532544.000000,0.000000,0.017510,2518623.801000
3.561791,0.054515,0.000000,1.292755,0.000000,352627163136.000000,0.000000,3.000000,0.000000,3.000000,18.989510,0.000000,173492553121792.000000,0.000000,0.015167,2529790.938000
3.580191,0.070695,0.000000,1.201949,0.000000,-945071980544.000000,0.000000,3.000000,0.000000,3.000000,19.809578,0.000000,-464975441166336.000000,0.000000,0.018400,2544191.381000
3.597150,0.088014,0.000000,1.109783,0.000000,2260345552896.000000,0.000000,3.000000,0.000000,3.000000,20.042967,0.000000,1112089842155520.000000,0.000000,0.016959,2557149.967000
3.614884,0.112010,0.000000,1.011378,0.000000,-5756688007168.000000,0.000000,3.000000,0.000000,3.000000,20.205362,0.000000,-2832290681978880.000000,0.000000,0.017734,2570884.056000
3.632097,0.129740,0.000000,0.915420,0.000000,14061578223616.000000,0.000000,3.000000,0.000000,3.000000,20.959078,0.000000,6918296813174784.000000,0.000000,0.017213,2584097.310000
3.645174,0.140107,0.000000,0.836987,0.000000,-22713567543296.000000,0.000000,3.000000,0.000000,3.000000,20.985613,0.000000,-11175076481204224.000000,0.000000,0.013076,2593173.774000
3.663092,0.158474,0.000000,0.729824,0.000000,58685116121088.000000,0.000000,3.000000,0.000000,3.000000,21.140554,0.000000,28873078708633600.000000,0.000000,0.017919,2607092.289000
3.674104,0.173664,0.000000,0.663416,0.000000,-70555323596800.000000,0.000000,3.000000,0.000000,3.000000,21.028076,0.000000,-34713224913879040.000000,0.000000,0.011011,2614103.636000
3.688131,0.192399,0.000000,0.580511,0.000000,127385626214400.000000,0.000000,3.000000,0.000000,3.000000,20.889549,0.000000,62673726151327744.000000,0.000000,0.014027,2624130.991000
3.701148,0.208926,0.000000,0.505527,0.000000,-204256682442752.000000,0.000000,3.000000,0.000000,3.000000,21.258623,0.000000,-100494306216771584.000000,0.000000,0.013017,2633148.251000
3.713091,0.220911,0.000000,0.434545,0.000000,283621789270016.000000,0.000000,3.000000,0.000000,3.000000,21.881344,0.000000,139541906899075072.000000,0.000000,0.011943,2641091.027000
3.727002,0.234170,0.000000,0.346773,0.000000,-505476110352384.000000,0.000000,3.000000,0.000000,3.000000,21.751621,0.000000,-248694257299226624.000000,0.000000,0.013911,2651002.123000
3.740809,0.249176,0.000000,0.261552,0.000000,890303032590336.000000,0.000000,3.000000,0.000000,3.000000,22.111629,0.000000,438029077270495232.000000,0.000000,0.013807,2660808.700000
3.751643,0.264138,0.000000,0.192551,0.000000,-1038939905327104.000000,0.000000,3.000000,0.000000,3.000000,22.298933,0.000000,-511158454627336192.000000,0.000000,0.010835,2667643.454000
3.767542,0.289886,0.000000,0.089962,0.000000,2264506205995008.000000,0.000000,3.000000,0.000000,3.000000,22.985121,0.000000,1114137125290246144.000000,0.000000,0.015898,2679541.611000
3.777979,0.309567,0.000000,0.018534,0.000000,-2462740421541888.000000,0.000000,3.000000,0.000000,3.000000,23.352877,0.000000,-1211668136001011712.000000,0.000000,0.010438,2685979.308000
3.790104,0.329758,0.000000,-0.066832,0.000000,3509494818537472.000000,0.000000,3.000000,0.000000,3.000000,24.039728,0.000000,1726671960747802624.000000,0.000000,0.012125,2694104.492000
3.805163,0.354441,0.000000,-0.178887,0.000000,-7060084421033984.000000,0.000000,3.000000,0.000000,3.000000,23.925070,0.000000,-3473561741307150336.000000,0.000000,0.015059,2705163.036000
3.818812,0.379608,0.000000,-0.278393,0.000000,12211936347291648.000000,0.000000,3.000000,0.000000,3.000000,24.688011,0.000000,6008272493888929792.000000,0.000000,0.013649,2714811.612000
3.833894,0.405809,0.000000,-0.395024,0.000000,-24624211444105216.000000,0.000000,3.000000,0.000000,3.000000,25.537014,0.000000,-12115111807161466880.000000,0.000000,0.015082,2725893.638000
3.848079,0.428289,0.000000,-0.511640,0.000000,45238164679294976.000000,0.000000,3.000000,0.000000,3.000000,26.402893,0.000000,22257178585581223936.000000,0.000000,0.014186,2736079.346000
3.865304,0.454913,0.000000,-0.661838,0.000000,-110602554697580544.000000,0.000000,3.000000,0.000000,3.000000,27.483427,0.000000,-54416475328029392896.000000,0.000000,0.017224,2749303.822000
3.877345,0.474151,0.000000,-0.774315,0.000000,155759995466547200.000000,0.000000,3.000000,0.000000,3.000000,28.140434,0.000000,76633902170220003328.000000,0.000000,0.012041,2757345.246000
3.894702,0.497974,0.000000,-0.942699,0.000000,-384931736619843584.000000,0.000000,3.000000,0.000000,3.000000,27.997345,0.000000,-189386409469160718336.000000,0.000000,0.017357,2770701.815000
3.910092,0.514470,0.000000,-1.088704,0.000000,799901581154713600.000000,0.000000,3.000000,0.000000,3.000000,28.995865,0.000000,393551592221770252288.000000,0.000000,0.015390,2782091.989000
3.923584,0.530192,0.000000,-1.224416,0.000000,-1358592026530021376.000000,0.000000,3.000000,0.000000,3.000000,29.852823,0.000000,-668427212181584478208.000000,0.000000,0.013492,2791584.232000
3.932609,0.542243,0.000000,-1.319564,0.000000,1093558047189499904.000000,0.000000,3.000000,0.000000,3.000000,30.287310,0.000000,538030621889396736000.000000,0.000000,0.009025,2796608.833000
3.941633,0.556371,0.000000,-1.416774,0.000000,-880210735081193472.000000,0.000000,3.000000,0.000000,3.000000,30.758732,0.000000,-433063642077528588288.000000,0.000000,0.009025,2801633.359000
3.955765,0.575355,0.000000,-1.572499,0.000000,1607627287052681216.000000,0.000000,3.000000,0.000000,3.000000,31.747295,0.000000,790952706593779613696.000000,0.000000,0.014132,2811765.419000
3.968760,0.594358,0.000000,-1.722919,0.000000,-2570310465188003840.000000,0.000000,3.000000,0.000000,3.000000,32.155346,0.000000,-1264592901704614150144.000000,0.000000,0.012994,2820759.530000
3.986131,0.612627,0.000000,-1.926876,0.000000,6359508184847089664.000000,0.000000,3.000000,0.000000,3.000000,33.054230,0.000000,3128878092915465781248.000000,0.000000,0.017371,2834130.618000
4.000289,0.620643,0.000000,-2.099439,0.000000,-11649094798844887040.000000,0.000000,3.000000,0.000000,3.000000,33.096371,0.000000,-5731355195185544822784.000000,0.000000,0.014159,2844289.419000
4.012346,0.622680,0.000000,-2.245075,0.000000,16441314029483327488.000000,0.000000,3.000000,0.000000,3.000000,33.842087,0.000000,8089126396952680857600.000000,0.000000,0.012057,2852346.324000
4.026688,0.620785,0.000000,-2.423762,0.000000,-30718050303689621504.000000,0.000000,3.000000,0.000000,3.000000,33.521748,0.000000,-15113282086421433155584.000000,0.000000,0.014342,2862688.051000
4.040008,0.618054,0.000000,-2.585199,0.000000,51113498417725177856.000000,0.000000,3.000000,0.000000,3.000000,33.219765,0.000000,25147836858658648489984.000000,0.000000,0.013320,2872007.831000
4.054724,0.614366,0.000000,-2.758941,0.000000,-99320750108726788096.000000,0.000000,3.000000,0.000000,3.000000,33.530521,0.000000,-48865816864424183463936.000000,0.000000,0.014716,2882723.540000
4.067826,0.617483,0.000000,-2.915295,0.000000,160943081597572218880.000000,0.000000,3.000000,0.000000,3.000000,33.242344,0.000000,79183991009087206719488.000000,0.000000,0.013102,2891825.726000
4.080512,0.622250,0.000000,-3.063027,0.000000,-247417190623922356224.000000,0.000000,3.000000,0.000000,3.000000,33.872387,0.000000,-121729244487277149683712.000000,0.000000,0.012686,2900512.208000
4.093499,0.622141,0.000000,-3.218137,0.000000,395232455229570023424.000000,0.000000,3.000000,0.000000,3.000000,34.688774,0.000000,194454389083571704823808.000000,0.000000,0.012987,2909499.375000
4.105079,0.618208,0.000000,-3.361258,0.000000,-520065692607071649792.000000,0.000000,3.000000,0.000000,3.000000,35.358418,0.000000,-255872355102626410397696.000000,0.000000,0.011579,2917078.613000
4.118080,0.617754,0.000000,-3.526839,0.000000,832265211138067660800.000000,0.000000,3.000000,0.000000,3.000000,36.364346,0.000000,409474447851132270149632.000000,0.000000,0.013002,2926080.150000
4.136686,0.613674,0.000000,-3.774006,0.000000,-2264765958487424368640.000000,0.000000,3.000000,0.000000,3.000000,35.976196,0.000000,-1114264767133319776174080.000000,0.000000,0.018606,2940686.186000
4.147783,0.608433,0.000000,-3.916485,0.000000,2761728607218550439936.000000,0.000000,3.000000,0.000000,3.000000,35.975906,0.000000,1358770451107628772753408.000000,0.000000,0.011097,2947783.348000
4.161365,0.597630,0.000000,-4.089159,0.000000,-4740191730194777636864.000000,0.000000,3.000000,0.000000,3.000000,37.063133,0.000000,-2332174006996657426661376.000000,0.000000,0.013582,2957365.276000
4.175400,0.587300,0.000000,-4.276271,0.000000,8565458055790822686720.000000,0.000000,3.000000,0.000000,3.000000,36.874916,0.000000,4214205665190259795689472.000000,0.000000,0.014035,2967400.206000
4.189287,0.572826,0.000000,-4.457478,0.000000,-15223525701699835527168.000000,0.000000,3.000000,0.000000,3.000000,37.188152,0.000000,-7489973577883207392559104.000000,0.000000,0.013887,2977286.784000
4.201100,0.554599,0.000000,-4.611967,0.000000,20742998919316573782016.000000,0.000000,3.000000,0.000000,3.000000,37.661598,0.000000,10205556242922890208477184.000000,0.000000,0.011813,2985099.596000
4.215998,0.525090,0.000000,-4.809104,0.000000,-41064717618690029256704.000000,0.000000,3.000000,0.000000,3.000000,38.157558,0.000000,-20203837951904552253915136.000000,0.000000,0.014898,2995998.047000
4.228951,0.492179,0.000000,-4.981957,0.000000,65316619626478659698688.000000,0.000000,3.000000,0.000000,3.000000,37.819489,0.000000,32135777702904230517407744.000000,0.000000,0.012953,3004950.936000
4.243538,0.453971,0.000000,-5.171359,0.000000,-125244691306007775674368.000000,0.000000,3.000000,0.000000,3.000000,37.820908,0.000000,-61620393959220942703951872.000000,0.000000,0.014588,3015538.442000
4.255996,0.427802,0.000000,-5.332537,0.000000,186792252907939694641152.000000,0.000000,3.000000,0.000000,3.000000,38.779125,0.000000,91901798879057465262997504.000000,0.000000,0.012457,3023995.534000
4.269940,0.394408,0.000000,-5.519801,0.000000,-334161832146526034460672.000000,0.000000,3.000000,0.000000,3.000000,39.654480,0.000000,-164407602681116359093387264.000000,0.000000,0.013945,3033940.278000
4.283638,0.355003,0.000000,-5.708973,0.000000,581272181972524012142592.000000,0.000000,3.000000,0.000000,3.000000,40.545773,0.000000,285985868566543134307123200.000000,0.000000,0.013697,3043637.744000
4.298504,0.305062,0.000000,-5.919998,0.000000,-1147016384775438781644800.000000,0.000000,3.000000,0.000000,3.000000,41.583061,0.000000,-564332054968447605231583232.000000,0.000000,0.014866,3054504.176000
4.311767,0.253638,0.000000,-6.114273,0.000000,1895432208956835827286016.000000,0.000000,3.000000,0.000000,3.000000,42.339500,0.000000,932552641618616456293908480.000000,0.000000,0.013262,3063766.622000
4.325162,0.194527,0.000000,-6.314011,0.000000,-3182592543685512196521984.000000,0.000000,3.000000,0.000000,3.000000,42.670578,0.000000,-1565835785136003014195150848.000000,0.000000,0.013395,3073162.050000
4.337181,0.135003,0.000000,-6.492709,0.000000,4467994529004475048263680.000000,0.000000,3.000000,0.000000,3.000000,42.519867,0.000000,2198253038486569645743538176.000000,0.000000,0.012019,3081181.474000
4.352487,0.066130,0.000000,-6.718375,0.000000,-9209170926221780970373120.000000,0.000000,3.000000,0.000000,3.000000,42.539223,0.000000,-4530912596069049236795162624.000000,0.000000,0.015306,3092487.185000
4.367600,-0.009401,0.000000,-6.937137,0.000000,18626860388688260891672576.000000,0.000000,3.000000,0.000000,3.000000,43.799202,0.000000,9164413881611958646212657152.000000,0.000000,0.015113,3103600.396000
4.382414,-0.080391,0.000000,-7.162786,0.000000,-36560406818895175926939648.000000,0.000000,3.000000,0.000000,3.000000,45.219788,0.000000,-17987721787433277079349624832.000000,0.000000,0.014814,3114414.291000
4.393420,-0.134528,0.000000,-7.339024,0.000000,43911321345960980774912000.000000,0.000000,3.000000,0.000000,3.000000,46.305775,0.000000,21604368589579788497073471488.000000,0.000000,0.011005,3121419.600000
4.408615,-0.211564,0.000000,-7.591209,0.000000,-89538817080075455974866944.000000,0.000000,3.000000,0.000000,3.000000,47.814930,0.000000,-44053110473396118167291428864.000000,0.000000,0.015195,3132615.015000
4.421684,-0.281924,0.000000,-7.818285,0.000000,144500485219323443404603392.000000,0.000000,3.000000,0.000000,3.000000,48.857967,0.000000,71094226257908140327407976448.000000,0.000000,0.013069,3141684.164000
4.437095,-0.359300,0.000000,-8.095861,0.000000,-300867299732662398624989184.000000,0.000000,3.000000,0.000000,3.000000,48.243664,0.000000,-148026733088053954511089172480.000000,0.000000,0.015411,3153094.765000
4.454074,-0.443027,0.000000,-8.391567,0.000000,720835522961884600810340352.000000,0.000000,3.000000,0.000000,3.000000,48.264156,0.000000,354651082905057422006391144448.000000,0.000000,0.016979,3166074.055000
4.470110,-0.509322,0.000000,-8.670472,0.000000,-1590976188551275108548739072.000000,0.000000,3.000000,0.000000,3.000000,48.076843,0.000000,-782760352060949734298423918592.000000,0.000000,0.016036,3178109.694000
4.484140,-0.557604,0.000000,-8.911860,0.000000,2873268988991672270647721984.000000,0.000000,3.000000,0.000000,3.000000,48.448357,0.000000,1413648491338446967552503447552.000000,0.000000,0.014030,3188139.587000
4.496257,-0.607184,0.000000,-9.119843,0.000000,-4089864522070292107886592000.000000,0.000000,3.000000,0.000000,3.000000,49.644360,0.000000,-2012212900956134327333553176576.000000,0.000000,0.012117,3196256.678000
4.506337,-0.651843,0.000000,-9.298901,0.000000,4155672469896511690056400896.000000,0.000000,3.000000,0.000000,3.000000,50.600319,0.000000,2044591561182872940519708688384.000000,0.000000,0.010080,3202337.133000
4.524149,-0.727447,0.000000,-9.625338,0.000000,-10648773497227390954124607488.000000,0.000000,3.000000,0.000000,3.000000,52.543118,0.000000,-5239196777864734561432986714112.000000,0.000000,0.017812,3216149.463000
4.539236,-0.793630,0.000000,-9.917885,0.000000,21482021518741601728877035520.000000,0.000000,3.000000,0.000000,3.000000,53.900860,0.000000,10569157288414496252044563709952.000000,0.000000,0.015087,3227236.081000
4.552518,-0.845973,0.000000,-10.186103,0.000000,-35581090555798317261016530944.000000,0.000000,3.000000,0.000000,3.000000,54.614548,0.000000,-17505893852259143890983070990336.000000,0.000000,0.013282,3236517.675000
4.561567,-0.875681,0.000000,-10.372580,0.000000,28816650024207282846142824448.000000,0.000000,3.000000,0.000000,3.000000,54.193546,0.000000,14177792397483427036138276126720.000000,0.000000,0.009049,3241567.109000
4.581106,-0.938142,0.000000,-10.767440,0.000000,-83794672013733353036607127552.000000,0.000000,3.000000,0.000000,3.000000,53.643024,0.000000,-41226981728629222456497966940160.000000,0.000000,0.019539,3257106.388000
4.593095,-0.967084,0.000000,-11.003459,0.000000,117122282340471655689164423168.000000,0.000000,3.000000,0.000000,3.000000,54.706913,0.000000,57624160040313233014324606271488.000000,0.000000,0.011989,3265095.034000
4.608073,-0.997074,0.000000,-11.307491,0.000000,-233733264617110049151751553024.000000,0.000000,3.000000,0.000000,3.000000,55.102600,0.000000,-114996776467487610907009749090304.000000,0.000000,0.014978,3276073.207000
4.620096,-1.030709,0.000000,-11.550926,0.000000,328276590540366727573575565312.000000,0.000000,3.000000,0.000000,3.000000,56.513485,0.000000,161512083301439067225342412324864.000000,0.000000,0.012022,3284095.668000
4.634450,-1.071476,0.000000,-11.852758,0.000000,-614153621398413591860370997248.000000,0.000000,3.000000,0.000000,3.000000,58.185577,0.000000,-302163580972440849936159296454656.000000,0.000000,0.014354,3294449.877000
4.648410,-1.116154,0.000000,-12.158404,0.000000,1100522801411332443068094742528.000000,0.000000,3.000000,0.000000,3.000000,57.587639,0.000000,541457139109734377231291670069248.000000,0.000000,0.013960,3304409.547000
4.660449,-1.149381,0.000000,-12.415447,0.000000,-1549470400477785844358861291520.000000,0.000000,3.000000,0.000000,3.000000,57.616241,0.000000,-762339492041195427890187204558848.000000,0.000000,0.012040,3312449.249000
4.674980,-1.198060,0.000000,-12.722106,0.000000,2953590138506030304756330659840.000000,0.000000,3.000000,0.000000,3.000000,56.920349,0.000000,1453166901832992293440276700069888.000000,0.000000,0.014531,3322980.217000
4.690377,-1.244568,0.000000,-13.037386,0.000000,-6141746944866067493651725942784.000000,0.000000,3.000000,0.000000,3.000000,57.147083,0.000000,-3021739835373334698972818081579008.000000,0.000000,0.015397,3334377.299000
4.705121,-1.300969,0.000000,-13.336403,0.000000,11968930182542588861415730184192.000000,0.000000,3.000000,0.000000,3.000000,58.598614,0.000000,5888714263945270084048160001359872.000000,0.000000,0.014744,3345121.212000
4.718177,-1.344956,0.000000,-13.612311,0.000000,-19282750052338153174011889057792.000000,0.000000,3.000000,0.000000,3.000000,58.928982,0.000000,-9487112566358559908054763028086784.000000,0.000000,0.013055,3354176.546000
4.732184,-1.381440,0.000000,-13.910446,0.000000,34737680699882145221409962459136.000000,0.000000,3.000000,0.000000,3.000000,60.284744,0.000000,17090939523312035091623838979457024.000000,0.000000,0.014007,3364183.995000
4.745704,-1.425797,0.000000,-14.206467,0.000000,-59193921202863158246580382859264.000000,0.000000,3.000000,0.000000,3.000000,60.522636,0.000000,-29123413409856306445475976151302144.000000,0.000000,0.013520,3373704.127000
4.758748,-1.478478,0.000000,-14.489887,0.000000,95235152764112808897459123126272.000000,0.000000,3.000000,0.000000,3.000000,61.549774,0.000000,46855693767260957781497079316611072.000000,0.000000,0.013044,3382748.461000
4.773387,-1.528383,0.000000,-14.816792,0.000000,-183583857860625299500389166481408.000000,0.000000,3.000000,0.000000,3.000000,61.557877,0.000000,-90323254585721286864059446755065856.000000,0.000000,0.014638,3393386.911000
4.782400,-1.565933,0.000000,-15.014964,0.000000,147353492272748579344385994391552.000000,0.000000,3.000000,0.000000,3.000000,61.214371,0.000000,72497918275563553492774176421838848.000000,0.000000,0.009013,3398400.159000
4.796448,-1.627805,0.000000,-15.318037,0.000000,-266650446894825096976925804462080.000000,0.000000,3.000000,0.000000,3.000000,60.787945,0.000000,-131192032638510602843131580692561920.000000,0.000000,0.014048,3408448.145000
4.811078,-1.682145,0.000000,-15.628181,0.000000,513582017703256965231918593343488.000000,0.000000,3.000000,0.000000,3.000000,62.590824,0.000000,252682339092661994754920924034629632.000000,0.000000,0.014630,3419078.391000
4.824111,-1.729029,0.000000,-15.917812,0.000000,-825063824807969352340111936716800.000000,0.000000,3.000000,0.000000,3.000000,61.937527,0.000000,-405931432754021903485841945342771200.000000,0.000000,0.013032,3428110.836000
4.837199,-1.778400,0.000000,-16.199932,0.000000,1334684589128018011364887694934016.000000,0.000000,3.000000,0.000000,3.000000,61.663128,0.000000,656664917505158024064636875287035904.000000,0.000000,0.013088,3437199.208000
4.850638,-1.836356,0.000000,-16.483212,0.000000,-2252627031778441768244787500023808.000000,0.000000,3.000000,0.000000,3.000000,63.334354,0.000000,-1108292500253963369619125587461275648.000000,0.000000,0.013439,3446638.006000
4.863334,-1.896019,0.000000,-16.761820,0.000000,3467401963336189454077327499591680.000000,0.000000,3.000000,0.000000,3.000000,64.948799,0.000000,1705961711492043482849313034237640704.000000,0.000000,0.012696,3455334.358000
4.878384,-1.972630,0.000000,-17.104521,0.000000,-6969391971370012433035336530001920.000000,0.000000,3.000000,0.000000,3.000000,64.223732,0.000000,-3428940998466850831299018560655851520.000000,0.000000,0.015050,3466384.235000
4.894477,-2.044677,0.000000,-17.461111,0.000000,15462542054175692309599056883089408.000000,0.000000,3.000000,0.000000,3.000000,65.455338,0.000000,7607570561908676530643187396971069440.000000,0.000000,0.016093,3478477.412000
4.909950,-2.129520,0.000000,-17.810013,0.000000,-32385915251710097612592825306710016.000000,0.000000,3.000000,0.000000,3.000000,67.090393,0.000000,-inf,0.000000,0.015472,3489949.790000
4.927212,-2.214173,0.000000,-18.216236,nan,inf,nan,3.000000,0.000000,3.000000,69.277977,nan,nan,nan,0.017262,3503212.155000
4.940186,-2.287412,0.000000,-18.535290,nan,nan,nan,3.000000,0.000000,3.000000,-nan,-nan,nan,nan,0.012974,3512186.249000
4.953481,-nan,-nan,nan,nan,nan,nan,3.000000,0.000000,3.000000,-nan,-nan,nan,nan,0.013295,3521481.380000
4.965818,-nan,-nan,nan,nan,nan,nan,3.000000,0.000000,3.000000,-nan,-nan,nan,nan,0.012336,3529817.879000
4.980038,-nan,-nan,nan,nan,nan,nan,3.000000,0.000000,3.000000,-nan,-nan,nan,nan,0.014220,3540037.920000
4.994482,-nan,-nan,nan,nan,nan,nan,3.000000,0.000000,3.000000,-nan,-nan,nan,nan,0.014444,3550481.666000
