time,x,y,z,roll,pitch,yaw,ref_x,ref_y,ref_z,F,tau_x,tau_y,tau_z,dt,latency_us
0.000001,0.000000,0.000000,0.000000,0.000000,0.000000,0.000000,0.000000,0.000000,3.000000,12.810000,0.000000,-0.000000,0.000000,0.004000,0.000000
0.004113,0.000000,0.000000,0.000000,0.000000,0.000000,0.000000,0.000000,0.000000,3.000000,12.791496,0.000000,-0.000000,0.000000,0.004112,112.754000
0.008103,0.000000,0.000000,0.000049,0.000000,0.000000,0.000000,0.000000,0.000000,3.000000,12.773603,0.000000,-0.000000,0.000000,0.003990,102.619000
0.012075,0.000000,0.000000,0.000145,0.000000,0.000000,0.000000,0.000000,0.000000,3.000000,12.755847,0.000000,-0.000000,0.000000,0.003973,75.318000
0.016145,0.000000,0.000000,0.000292,0.000000,0.000000,0.000000,0.000000,0.000000,3.000000,12.737716,0.000000,-0.000000,0.000000,0.004070,145.331000
0.020083,0.000000,0.000000,0.000481,0.000000,0.000000,0.000000,0.000000,0.000000,3.000000,12.720233,0.000000,-0.000000,0.000000,0.003938,83.270000
0.024064,0.000000,0.000000,0.000718,0.000000,0.000000,0.000000,0.000000,0.000000,3.000000,12.702620,0.000000,-0.000000,0.000000,0.003981,63.895000
0.028060,0.000000,0.000000,0.001002,0.000000,0.000000,0.000000,0.000000,0.000000,3.000000,12.684996,0.000000,-0.000000,0.000000,0.003996,60.167000
0.032073,0.000000,0.000000,0.001334,0.000000,0.000000,0.000000,0.000000,0.000000,3.000000,12.667358,0.000000,-0.000000,0.000000,0.004013,73.051000
0.036091,0.000000,0.000000,0.001712,0.000000,0.000000,0.000000,0.000000,0.000000,3.000000,12.649759,0.000000,-0.000000,0.000000,0.004018,90.749000
0.040073,0.000000,0.000000,0.002133,0.000000,0.000000,0.000000,0.000000,0.000000,3.000000,12.632374,0.000000,-0.000000,0.000000,0.003983,73.485000
0.044080,0.000000,0.000000,0.002602,0.000000,0.000000,0.000000,0.000000,0.000000,3.000000,12.614943,0.000000,-0.000000,0.000000,0.004007,80.146000
0.048070,0.000000,0.000000,0.003114,0.000000,0.000000,0.000000,0.000000,0.000000,3.000000,12.597645,0.000000,-0.000000,0.000000,0.003990,69.808000
0.052061,0.000000,0.000000,0.003671,0.000000,0.000000,0.000000,0.000000,0.000000,3.000000,12.580400,0.000000,-0.000000,0.000000,0.003991,60.877000
0.056063,0.000000,0.000000,0.004273,0.000000,0.000000,0.000000,0.000000,0.000000,3.000000,12.563168,0.000000,-0.000000,0.000000,0.004002,62.501000
0.060078,0.000000,0.000000,0.004923,0.000000,0.000000,0.000000,0.000000,0.000000,3.000000,12.545936,0.000000,-0.000000,0.000000,0.004015,77.977000
0.064062,0.000000,0.000000,0.005611,0.000000,0.000000,0.000000,0.000000,0.000000,3.000000,12.528897,0.000000,-0.000000,0.000000,0.003984,61.917000
0.068066,0.000000,0.000000,0.006346,0.000000,0.000000,0.000000,0.000000,0.000000,3.000000,12.511831,0.000000,-0.000000,0.000000,0.004004,66.245000
0.072099,0.000000,0.000000,0.007131,0.000000,0.000000,0.000000,0.000000,0.000000,3.000000,12.494702,0.000000,-0.000000,0.000000,0.004033,98.962000
0.076066,0.000000,0.000000,0.007946,0.000000,0.000000,0.000000,0.000000,0.000000,3.000000,12.477910,0.000000,-0.000000,0.000000,0.003967,66.456000
0.080060,0.000000,0.000000,0.008809,0.000000,0.000000,0.000000,0.000000,0.000000,3.000000,12.461064,0.000000,-0.000000,0.000000,0.003994,60.340000
0.084073,0.000000,0.000000,0.009719,0.000000,0.000000,0.000000,0.000000,0.000000,3.000000,12.444197,0.000000,-0.000000,0.000000,0.004013,73.353000
0.088060,0.000000,0.000000,0.010666,0.000000,0.000000,0.000000,0.000000,0.000000,3.000000,12.427496,0.000000,-0.000000,0.000000,0.003987,60.404000
0.092061,0.000000,0.000000,0.011657,0.000000,0.000000,0.000000,0.000000,0.000000,3.000000,12.410797,0.000000,-0.000000,0.000000,0.004000,60.732000
0.096061,0.000000,0.000000,0.012691,0.000000,0.000000,0.000000,0.000000,0.000000,3.000000,12.394159,0.000000,-0.000000,0.000000,0.004000,60.838000
0.100059,0.000000,0.000000,0.013765,0.000000,0.000000,0.000000,0.000000,0.000000,3.000000,12.377587,0.000000,-0.000000,0.000000,0.003998,58.796000
0.104060,0.000000,0.000000,0.014882,0.000000,0.000000,0.000000,0.000000,0.000000,3.000000,12.361061,0.000000,-0.000000,0.000000,0.004001,59.976000
0.108059,0.000000,0.000000,0.016039,0.000000,0.000000,0.000000,0.000000,0.000000,3.000000,12.344603,0.000000,-0.000000,0.000000,0.003999,58.674000
0.112058,0.000000,0.000000,0.017237,0.000000,0.000000,0.000000,0.000000,0.000000,3.000000,12.328199,0.000000,-0.000000,0.000000,0.003999,57.965000
0.116059,0.000000,0.000000,0.018476,0.000000,0.000000,0.000000,0.000000,0.000000,3.000000,12.311846,0.000000,-0.000000,0.000000,0.004001,59.330000
0.120059,0.000000,0.000000,0.019755,0.000000,0.000000,0.000000,0.000000,0.000000,3.000000,12.295556,0.000000,-0.000000,0.000000,0.004000,59.103000
0.124059,0.000000,0.000000,0.021074,0.000000,0.000000,0.000000,0.000000,0.000000,3.000000,12.279326,0.000000,-0.000000,0.000000,0.003999,58.505000
0.128059,0.000000,0.000000,0.022433,0.000000,0.000000,0.000000,0.000000,0.000000,3.000000,12.263151,0.000000,-0.000000,0.000000,0.004000,58.518000
0.132065,0.000000,0.000000,0.023834,0.000000,0.000000,0.000000,0.000000,0.000000,3.000000,12.247009,0.000000,-0.000000,0.000000,0.004006,64.791000
0.136059,0.000000,0.000000,0.025270,0.000000,0.000000,0.000000,0.000000,0.000000,3.000000,12.230972,0.000000,-0.000000,0.000000,0.003994,58.952000
0.140060,0.000000,0.000000,0.026747,0.000000,0.000000,0.000000,0.000000,0.000000,3.000000,12.214966,0.000000,-0.000000,0.000000,0.004001,59.799000
0.144072,0.000000,0.000000,0.028267,0.000000,0.000000,0.000000,0.000000,0.000000,3.000000,12.198975,0.000000,-0.000000,0.000000,0.004012,71.572000
0.148058,0.000000,0.000000,0.029815,0.000000,0.000000,0.000000,0.000000,0.000000,3.000000,12.183140,0.000000,-0.000000,0.000000,0.003987,58.177000
0.152058,0.000000,0.000000,0.031408,0.000000,0.000000,0.000000,0.000000,0.000000,3.000000,12.167308,0.000000,-0.000000,0.000000,0.004000,58.413000
0.156058,0.000000,0.000000,0.033038,0.000000,0.000000,0.000000,0.000000,0.000000,3.000000,12.151535,0.000000,-0.000000,0.000000,0.004000,58.223000
0.160059,0.000000,0.000000,0.034706,0.000000,0.000000,0.000000,0.000000,0.000000,3.000000,12.135816,0.000000,-0.000000,0.000000,0.004001,58.754000
0.164059,0.000000,0.000000,0.036411,0.000000,0.000000,0.000000,0.000000,0.000000,3.000000,12.120156,0.000000,-0.000000,0.000000,0.004000,58.601000
0.168059,0.000000,0.000000,0.038154,0.000000,0.000000,0.000000,0.000000,0.000000,3.000000,12.104551,0.000000,-0.000000,0.000000,0.004000,59.003000
0.172058,0.000000,0.000000,0.039933,0.000000,0.000000,0.000000,0.000000,0.000000,3.000000,12.089006,0.000000,-0.000000,0.000000,0.003999,58.480000
0.176058,0.000000,0.000000,0.041749,0.000000,0.000000,0.000000,0.000000,0.000000,3.000000,12.073518,0.000000,-0.000000,0.000000,0.004000,58.067000
0.180058,0.000000,0.000000,0.043602,0.000000,0.000000,0.000000,0.000000,0.000000,3.000000,12.058083,0.000000,-0.000000,0.000000,0.004000,58.488000
0.184058,0.000000,0.000000,0.045490,0.000000,0.000000,0.000000,0.000000,0.000000,3.000000,12.042706,0.000000,-0.000000,0.000000,0.004000,58.316000
0.188058,0.000000,0.000000,0.047415,0.000000,0.000000,0.000000,0.000000,0.000000,3.000000,12.027384,0.000000,-0.000000,0.000000,0.004000,58.440000
0.192058,0.000000,0.000000,0.049376,0.000000,0.000000,0.000000,0.000000,0.000000,3.000000,12.012120,0.000000,-0.000000,0.000000,0.004000,58.157000
0.196059,0.000000,0.000000,0.051372,0.000000,0.000000,0.000000,0.000000,0.000000,3.000000,11.996910,0.000000,-0.000000,0.000000,0.004001,58.708000
0.200061,0.000000,0.000000,0.053404,0.000000,0.000000,0.000000,0.000000,0.000000,3.000000,11.981749,0.000000,-0.000000,0.000000,0.004002,60.888000
0.204065,0.000000,0.000000,0.055473,0.000000,0.000000,0.000000,0.000000,0.000000,3.000000,11.966637,0.000000,-0.000000,0.000000,0.004004,65.012000
0.208068,0.000000,0.000000,0.057575,0.000000,0.000000,0.000000,0.000000,0.000000,3.000000,11.951583,0.000000,-0.000000,0.000000,0.004003,68.211000
0.212060,0.000000,0.000000,0.059707,0.000000,0.000000,0.000000,0.000000,0.000000,3.000000,11.936628,0.000000,-0.000000,0.000000,0.003992,60.205000
0.216059,0.000000,0.000000,0.061876,0.000000,0.000000,0.000000,0.000000,0.000000,3.000000,11.921705,0.000000,-0.000000,0.000000,0.003998,58.552000
0.220058,0.000000,0.000000,0.064079,0.000000,0.000000,0.000000,0.000000,0.000000,3.000000,11.906832,0.000000,-0.000000,0.000000,0.004000,58.269000
0.224058,0.000000,0.000000,0.066317,0.000000,0.000000,0.000000,0.000000,0.000000,3.000000,11.892013,0.000000,-0.000000,0.000000,0.004000,58.356000
0.228059,0.000000,0.000000,0.068588,0.000000,0.000000,0.000000,0.000000,0.000000,3.000000,11.877248,0.000000,-0.000000,0.000000,0.004001,58.888000
0.232059,0.000000,0.000000,0.070892,0.000000,0.000000,0.000000,0.000000,0.000000,3.000000,11.862541,0.000000,-0.000000,0.000000,0.004000,58.513000
0.236059,0.000000,0.000000,0.073230,0.000000,0.000000,0.000000,0.000000,0.000000,3.000000,11.847888,0.000000,-0.000000,0.000000,0.004000,58.581000
0.240058,0.000000,0.000000,0.075600,0.000000,0.000000,0.000000,0.000000,0.000000,3.000000,11.833291,0.000000,-0.000000,0.000000,0.004000,58.391000
0.244059,0.000000,0.000000,0.078004,0.000000,0.000000,0.000000,0.000000,0.000000,3.000000,11.818745,0.000000,-0.000000,0.000000,0.004001,59.349000
0.248059,0.000000,0.000000,0.080439,0.000000,0.000000,0.000000,0.000000,0.000000,3.000000,11.804257,0.000000,-0.000000,0.000000,0.004000,59.177000
0.252058,0.000000,0.000000,0.082906,0.000000,0.000000,0.000000,0.000000,0.000000,3.000000,11.789828,0.000000,-0.000000,0.000000,0.003999,58.283000
0.256058,0.000000,0.000000,0.085405,0.000000,0.000000,0.000000,0.000000,0.000000,3.000000,11.775450,0.000000,-0.000000,0.000000,0.004000,58.296000
0.260058,0.000000,0.000000,0.087936,0.000000,0.000000,0.000000,0.000000,0.000000,3.000000,11.761126,0.000000,-0.000000,0.000000,0.004000,58.439000
0.264069,0.000000,0.000000,0.090506,0.000000,0.000000,0.000000,0.000000,0.000000,3.000000,11.746819,0.000000,-0.000000,0.000000,0.004010,68.712000
0.268059,0.000000,0.000000,0.093093,0.000000,0.000000,0.000000,0.000000,0.000000,3.000000,11.732640,0.000000,-0.000000,0.000000,0.003990,58.836000
0.272059,0.000000,0.000000,0.095718,0.000000,0.000000,0.000000,0.000000,0.000000,3.000000,11.718479,0.000000,-0.000000,0.000000,0.004000,58.775000
0.276066,0.000000,0.000000,0.098378,0.000000,0.000000,0.000000,0.000000,0.000000,3.000000,11.704350,0.000000,-0.000000,0.000000,0.004007,65.529000
0.280058,0.000000,0.000000,0.101059,0.000000,0.000000,0.000000,0.000000,0.000000,3.000000,11.690323,0.000000,-0.000000,0.000000,0.003993,58.098000
0.284058,0.000000,0.000000,0.103775,0.000000,0.000000,0.000000,0.000000,0.000000,3.000000,11.676325,0.000000,-0.000000,0.000000,0.004000,58.315000
0.288058,0.000000,0.000000,0.106521,0.000000,0.000000,0.000000,0.000000,0.000000,3.000000,11.662380,0.000000,-0.000000,0.000000,0.004000,58.180000
0.292058,0.000000,0.000000,0.109298,0.000000,0.000000,0.000000,0.000000,0.000000,3.000000,11.648490,0.000000,-0.000000,0.000000,0.004000,58.249000
0.296058,0.000000,0.000000,0.112103,0.000000,0.000000,0.000000,0.000000,0.000000,3.000000,11.634654,0.000000,-0.000000,0.000000,0.004000,57.874000
0.300058,0.000000,0.000000,0.114939,0.000000,0.000000,0.000000,0.000000,0.000000,3.000000,11.620870,0.000000,-0.000000,0.000000,0.004000,58.257000
0.304058,0.000000,0.000000,0.117803,0.000000,0.000000,0.000000,0.000000,0.000000,3.000000,11.607141,0.000000,-0.000000,0.000000,0.004000,58.178000
0.308059,0.000000,0.000000,0.120698,0.000000,0.000000,0.000000,0.000000,0.000000,3.000000,11.593460,0.000000,-0.000000,0.000000,0.004001,59.469000
0.312058,0.000000,0.000000,0.123619,0.000000,0.000000,0.000000,0.000000,0.000000,3.000000,11.579841,0.000000,-0.000000,0.000000,0.003999,58.297000
0.316058,0.000000,0.000000,0.126570,0.000000,0.000000,0.000000,0.000000,0.000000,3.000000,11.566271,0.000000,-0.000000,0.000000,0.004000,58.162000
0.320059,0.000000,0.000000,0.129550,0.000000,0.000000,0.000000,0.000000,0.000000,3.000000,11.552752,0.000000,-0.000000,0.000000,0.004001,58.879000
0.324058,0.000000,0.000000,0.132556,0.000000,0.000000,0.000000,0.000000,0.000000,3.000000,11.539290,0.000000,-0.000000,0.000000,0.003999,58.319000
0.328059,0.000000,0.000000,0.135592,0.000000,0.000000,0.000000,0.000000,0.000000,3.000000,11.525878,0.000000,-0.000000,0.000000,0.004000,58.702000
0.332059,0.000000,0.000000,0.138655,0.000000,0.000000,0.000000,0.000000,0.000000,3.000000,11.512518,0.000000,-0.000000,0.000000,0.004001,59.456000
0.336059,0.000000,0.000000,0.141745,0.000000,0.000000,0.000000,0.000000,0.000000,3.000000,11.499214,0.000000,-0.000000,0.000000,0.004000,58.988000
0.340066,0.000000,0.000000,0.144868,0.000000,0.000000,0.000000,0.000000,0.000000,3.000000,11.485937,0.000000,-0.000000,0.000000,0.004007,66.113000
0.344059,0.000000,0.000000,0.148006,0.000000,0.000000,0.000000,0.000000,0.000000,3.000000,11.472762,0.000000,-0.000000,0.000000,0.003993,58.682000
0.348058,0.000000,0.000000,0.151178,0.000000,0.000000,0.000000,0.000000,0.000000,3.000000,11.459615,0.000000,-0.000000,0.000000,0.004000,58.380000
0.352058,0.000000,0.000000,0.154375,0.000000,0.000000,0.000000,0.000000,0.000000,3.000000,11.446519,0.000000,-0.000000,0.000000,0.004000,58.449000
0.356058,0.000000,0.000000,0.157599,0.000000,0.000000,0.000000,0.000000,0.000000,3.000000,11.433477,0.000000,-0.000000,0.000000,0.003999,57.814000
0.360058,0.000000,0.000000,0.160850,0.000000,0.000000,0.000000,0.000000,0.000000,3.000000,11.420485,0.000000,-0.000000,0.000000,0.004000,58.253000
0.364058,0.000000,0.000000,0.164126,0.000000,0.000000,0.000000,0.000000,0.000000,3.000000,11.407546,0.000000,-0.000000,0.000000,0.004000,58.119000
0.368058,0.000000,0.000000,0.167429,0.000000,0.000000,0.000000,0.000000,0.000000,3.000000,11.394658,0.000000,-0.000000,0.000000,0.004000,58.206000
0.372059,0.000000,0.000000,0.170757,0.000000,0.000000,0.000000,0.000000,0.000000,3.000000,11.381822,0.000000,-0.000000,0.000000,0.004000,58.590000
0.376058,0.000000,0.000000,0.174109,0.000000,0.000000,0.000000,0.000000,0.000000,3.000000,11.369040,0.000000,-0.000000,0.000000,0.003999,57.955000
0.380058,0.000000,0.000000,0.177488,0.000000,0.000000,0.000000,0.000000,0.000000,3.000000,11.356306,0.000000,-0.000000,0.000000,0.004000,58.227000
0.384058,0.000000,0.000000,0.180891,0.000000,0.000000,0.000000,0.000000,0.000000,3.000000,11.343625,0.000000,-0.000000,0.000000,0.004000,58.092000
0.388058,0.000000,0.000000,0.184319,0.000000,0.000000,0.000000,0.000000,0.000000,3.000000,11.330997,0.000000,-0.000000,0.000000,0.004000,57.958000
0.392058,0.000000,0.000000,0.187771,0.000000,0.000000,0.000000,0.000000,0.000000,3.000000,11.318418,0.000000,-0.000000,0.000000,0.004000,57.934000
0.396060,0.000000,0.000000,0.191250,0.000000,0.000000,0.000000,0.000000,0.000000,3.000000,11.305883,0.000000,-0.000000,0.000000,0.004002,60.299000
0.400058,0.000000,0.000000,0.194750,0.000000,0.000000,0.000000,0.000000,0.000000,3.000000,11.293412,0.000000,-0.000000,0.000000,0.003998,58.498000
0.404058,0.000000,0.000000,0.198274,0.000000,0.000000,0.000000,0.000000,0.000000,3.000000,11.280988,0.000000,-0.000000,0.000000,0.004000,58.178000
0.408059,0.000000,0.000000,0.201823,0.000000,0.000000,0.000000,0.000000,0.000000,3.000000,11.268612,0.000000,-0.000000,0.000000,0.004001,58.802000
0.412058,0.000000,0.000000,0.205395,0.000000,0.000000,0.000000,0.000000,0.000000,3.000000,11.256289,0.000000,-0.000000,0.000000,0.003999,58.130000
0.416058,0.000000,0.000000,0.208990,0.000000,0.000000,0.000000,0.000000,0.000000,3.000000,11.244017,0.000000,-0.000000,0.000000,0.004000,57.940000
0.420058,0.000000,0.000000,0.212609,0.000000,0.000000,0.000000,0.000000,0.000000,3.000000,11.231794,0.000000,-0.000000,0.000000,0.004000,57.768000
0.424058,0.000000,0.000000,0.216251,0.000000,0.000000,0.000000,0.000000,0.000000,3.000000,11.219622,0.000000,-0.000000,0.000000,0.004000,58.152000
0.428075,0.000000,0.000000,0.219930,0.000000,0.000000,0.000000,0.000000,0.000000,3.000000,11.207449,0.000000,-0.000000,0.000000,0.004017,74.683000
0.432068,0.000000,0.000000,0.223611,0.000000,0.000000,0.000000,0.000000,0.000000,3.000000,11.195397,0.000000,-0.000000,0.000000,0.003994,68.197000
0.436059,0.000000,0.000000,0.227312,0.000000,0.000000,0.000000,0.000000,0.000000,3.000000,11.183402,0.000000,-0.000000,0.000000,0.003991,59.303000
0.440059,0.000000,0.000000,0.231043,0.000000,0.000000,0.000000,0.000000,0.000000,3.000000,11.171432,0.000000,-0.000000,0.000000,0.004000,58.908000
0.444059,0.000000,0.000000,0.234797,0.000000,0.000000,0.000000,0.000000,0.000000,3.000000,11.159509,0.000000,-0.000000,0.000000,0.004000,59.329000
0.448059,0.000000,0.000000,0.238572,0.000000,0.000000,0.000000,0.000000,0.000000,3.000000,11.147636,0.000000,-0.000000,0.000000,0.004000,59.287000
0.452059,0.000000,0.000000,0.242369,0.000000,0.000000,0.000000,0.000000,0.000000,3.000000,11.135815,0.000000,-0.000000,0.000000,0.004000,58.893000
0.456058,0.000000,0.000000,0.246186,0.000000,0.000000,0.000000,0.000000,0.000000,3.000000,11.124044,0.000000,-0.000000,0.000000,0.003999,58.073000
0.460058,0.000000,0.000000,0.250025,0.000000,0.000000,0.000000,0.000000,0.000000,3.000000,11.112321,0.000000,-0.000000,0.000000,0.004000,57.808000
0.464060,0.000000,0.000000,0.253888,0.000000,0.000000,0.000000,0.000000,0.000000,3.000000,11.100639,0.000000,-0.000000,0.000000,0.004003,60.322000
0.468060,0.000000,0.000000,0.257769,0.000000,0.000000,0.000000,0.000000,0.000000,3.000000,11.089016,0.000000,-0.000000,0.000000,0.003999,59.613000
0.472064,0.000000,0.000000,0.261675,0.000000,0.000000,0.000000,0.000000,0.000000,3.000000,11.077428,0.000000,-0.000000,0.000000,0.004004,64.071000
0.476059,0.000000,0.000000,0.265592,0.000000,0.000000,0.000000,0.000000,0.000000,3.000000,11.065914,0.000000,-0.000000,0.000000,0.003995,59.232000
0.480058,0.000000,0.000000,0.269534,0.000000,0.000000,0.000000,0.000000,0.000000,3.000000,11.054440,0.000000,-0.000000,0.000000,0.003999,58.023000
0.484058,0.000000,0.000000,0.273497,0.000000,0.000000,0.000000,0.000000,0.000000,3.000000,11.043011,0.000000,-0.000000,0.000000,0.004000,58.092000
0.488058,0.000000,0.000000,0.277479,0.000000,0.000000,0.000000,0.000000,0.000000,3.000000,11.031630,0.000000,-0.000000,0.000000,0.004000,58.198000
0.492058,0.000000,0.000000,0.281482,0.000000,0.000000,0.000000,0.000000,0.000000,3.000000,11.020297,0.000000,-0.000000,0.000000,0.004000,58.193000
0.496083,0.000000,0.000000,0.285528,0.000000,0.000000,0.000000,0.000000,0.000000,3.000000,11.008945,0.000000,-0.000000,0.000000,0.004024,82.669000
0.500446,0.000000,0.000000,0.289937,0.000000,0.000000,0.000000,0.000000,0.000000,3.000000,10.996689,0.000000,-0.000000,0.000000,0.004363,445.869000
0.504768,0.000000,0.000000,0.294327,0.000000,0.000000,0.000000,0.000000,0.000000,3.000000,10.984606,0.000000,-0.000000,0.000000,0.004322,768.346000
0.509040,0.000000,0.000000,0.298686,0.000000,0.000000,0.000000,0.000000,0.000000,3.000000,10.972719,0.000000,-0.000000,0.000000,0.004271,1039.749000
0.513406,0.000000,0.000000,0.303165,0.000000,0.000000,0.000000,0.000000,0.000000,3.000000,10.960626,0.000000,-0.000000,0.000000,0.004366,1406.190000
0.517748,0.000000,0.000000,0.307641,0.000000,0.000000,0.000000,0.000000,0.000000,3.000000,10.948656,0.000000,-0.000000,0.000000,0.004342,1748.056000
0.522053,0.000000,0.000000,0.312100,0.000000,0.000000,0.000000,0.000000,0.000000,3.000000,10.936846,0.000000,-0.000000,0.000000,0.004305,2052.700000
0.526332,0.000000,0.000000,0.316553,0.000000,0.000000,0.000000,0.000000,0.000000,3.000000,10.925159,0.000000,-0.000000,0.000000,0.004279,2331.807000
0.530664,0.000000,0.000000,0.321082,0.000000,0.000000,0.000000,0.000000,0.000000,3.000000,10.913383,0.000000,-0.000000,0.000000,0.004332,2663.914000
0.534963,0.000000,0.000000,0.325598,0.000000,0.000000,0.000000,0.000000,0.000000,3.000000,10.901752,0.000000,-0.000000,0.000000,0.004299,2963.224000
0.539292,0.000000,0.000000,0.330165,0.000000,0.000000,0.000000,0.000000,0.000000,3.000000,10.890097,0.000000,-0.000000,0.000000,0.004328,3291.683000
0.543636,0.000000,0.000000,0.334769,0.000000,0.000000,0.000000,0.000000,0.000000,3.000000,10.878453,0.000000,-0.000000,0.000000,0.004345,3636.309000
0.547957,0.000000,0.000000,0.339369,0.000000,0.000000,0.000000,0.000000,0.000000,3.000000,10.866929,0.000000,-0.000000,0.000000,0.004321,3956.990000
0.552226,0.000000,0.000000,0.343934,0.000000,0.000000,0.000000,0.000000,0.000000,3.000000,10.855596,0.000000,-0.000000,0.000000,0.004269,4226.467000
0.556542,0.000000,0.000000,0.348567,0.000000,0.000000,0.000000,0.000000,0.000000,3.000000,10.844194,0.000000,-0.000000,0.000000,0.004315,4541.704000
0.560853,0.000000,0.000000,0.353214,0.000000,0.000000,0.000000,0.000000,0.000000,3.000000,10.832859,0.000000,-0.000000,0.000000,0.004311,4852.514000
0.565141,0.000000,0.000000,0.357857,0.000000,0.000000,0.000000,0.000000,0.000000,3.000000,10.821636,0.000000,-0.000000,0.000000,0.004289,5141.140000
0.569426,0.000000,0.000000,0.362515,0.000000,0.000000,0.000000,0.000000,0.000000,3.000000,10.810476,0.000000,-0.000000,0.000000,0.004285,5426.006000
0.573726,0.000000,0.000000,0.367207,0.000000,0.000000,0.000000,0.000000,0.000000,3.000000,10.799332,0.000000,-0.000000,0.000000,0.004300,5725.668000
0.578029,0.000000,0.000000,0.371922,0.000000,0.000000,0.000000,0.000000,0.000000,3.000000,10.788232,0.000000,-0.000000,0.000000,0.004303,6028.664000
0.582305,0.000000,0.000000,0.376625,0.000000,0.000000,0.000000,0.000000,0.000000,3.000000,10.777254,0.000000,-0.000000,0.000000,0.004276,6304.641000
0.586618,0.000000,0.000000,0.381387,0.000000,0.000000,0.000000,0.000000,0.000000,3.000000,10.766233,0.000000,-0.000000,0.000000,0.004313,6617.896000
0.590976,0.000000,0.000000,0.386217,0.000000,0.000000,0.000000,0.000000,0.000000,3.000000,10.755154,0.000000,-0.000000,0.000000,0.004358,6975.855000
0.595278,0.000000,0.000000,0.391003,0.000000,0.000000,0.000000,0.000000,0.000000,3.000000,10.744267,0.000000,-0.000000,0.000000,0.004302,7278.240000
0.599617,0.000000,0.000000,0.395847,0.000000,0.000000,0.000000,0.000000,0.000000,3.000000,10.733344,0.000000,-0.000000,0.000000,0.004338,7616.588000
0.603954,0.000000,0.000000,0.400707,0.000000,0.000000,0.000000,0.000000,0.000000,3.000000,10.722475,0.000000,-0.000000,0.000000,0.004338,7954.435000
0.608255,0.000000,0.000000,0.405543,0.000000,0.000000,0.000000,0.000000,0.000000,3.000000,10.711754,0.000000,-0.000000,0.000000,0.004300,8254.616000
0.612548,0.000000,0.000000,0.410388,0.000000,0.000000,0.000000,0.000000,0.000000,3.000000,10.701102,0.000000,-0.000000,0.000000,0.004293,8547.668000
0.616824,0.000000,0.000000,0.415230,0.000000,0.000000,0.000000,0.000000,0.000000,3.000000,10.690544,0.000000,-0.000000,0.000000,0.004277,8824.200000
0.621117,0.000000,0.000000,0.420107,0.000000,0.000000,0.000000,0.000000,0.000000,3.000000,10.679996,0.000000,-0.000000,0.000000,0.004293,9116.955000
0.625419,0.000000,0.000000,0.425011,0.000000,0.000000,0.000000,0.000000,0.000000,3.000000,10.669479,0.000000,-0.000000,0.000000,0.004302,9418.748000
0.629712,0.000000,0.000000,0.429921,0.000000,0.000000,0.000000,0.000000,0.000000,3.000000,10.659034,0.000000,-0.000000,0.000000,0.004293,9712.058000
0.634010,0.000000,0.000000,0.434853,0.000000,0.000000,0.000000,0.000000,0.000000,3.000000,10.648628,0.000000,-0.000000,0.000000,0.004298,10010.165000
0.638339,0.000000,0.000000,0.439836,0.000000,0.000000,0.000000,0.000000,0.000000,3.000000,10.638200,0.000000,-0.000000,0.000000,0.004329,10339.272000
0.642733,0.000000,0.000000,0.444909,0.000000,0.000000,0.000000,0.000000,0.000000,3.000000,10.627667,0.000000,-0.000000,0.000000,0.004394,10733.379000
0.647073,0.000000,0.000000,0.449936,0.000000,0.000000,0.000000,0.000000,0.000000,3.000000,10.617317,0.000000,-0.000000,0.000000,0.004340,11073.412000
0.651447,0.000000,0.000000,0.455018,0.000000,0.000000,0.000000,0.000000,0.000000,3.000000,10.606939,0.000000,-0.000000,0.000000,0.004374,11447.316000
0.655754,0.000000,0.000000,0.460037,0.000000,0.000000,0.000000,0.000000,0.000000,3.000000,10.596772,0.000000,-0.000000,0.000000,0.004306,11753.793000
0.660038,0.000000,0.000000,0.465044,0.000000,0.000000,0.000000,0.000000,0.000000,3.000000,10.586708,0.000000,-0.000000,0.000000,0.004284,12038.215000
0.664371,0.000000,0.000000,0.470123,0.000000,0.000000,0.000000,0.000000,0.000000,3.000000,10.576581,0.000000,-0.000000,0.000000,0.004333,12371.211000
0.668672,0.000000,0.000000,0.475179,0.000000,0.000000,0.000000,0.000000,0.000000,3.000000,10.566580,0.000000,-0.000000,0.000000,0.004301,12672.114000
0.672984,0.000000,0.000000,0.480262,0.000000,0.000000,0.000000,0.000000,0.000000,3.000000,10.556603,0.000000,-0.000000,0.000000,0.004312,12983.776000
0.677322,0.000000,0.000000,0.485390,0.000000,0.000000,0.000000,0.000000,0.000000,3.000000,10.546617,0.000000,-0.000000,0.000000,0.004339,13322.402000
0.681601,0.000000,0.000000,0.490462,0.000000,0.000000,0.000000,0.000000,0.000000,3.000000,10.536818,0.000000,-0.000000,0.000000,0.004278,13600.768000
0.685909,0.000000,0.000000,0.495582,0.000000,0.000000,0.000000,0.000000,0.000000,3.000000,10.527001,0.000000,-0.000000,0.000000,0.004308,13908.634000
0.690210,0.000000,0.000000,0.500707,0.000000,0.000000,0.000000,0.000000,0.000000,3.000000,10.517250,0.000000,-0.000000,0.000000,0.004301,14209.982000
0.694524,0.000000,0.000000,0.505861,0.000000,0.000000,0.000000,0.000000,0.000000,3.000000,10.507519,0.000000,-0.000000,0.000000,0.004314,14524.015000
0.698811,0.000000,0.000000,0.510996,0.000000,0.000000,0.000000,0.000000,0.000000,3.000000,10.497899,0.000000,-0.000000,0.000000,0.004287,14811.177000
0.703110,0.000000,0.000000,0.516158,0.000000,0.000000,0.000000,0.000000,0.000000,3.000000,10.488300,0.000000,-0.000000,0.000000,0.004299,15110.284000
0.707411,0.000000,0.000000,0.521335,0.000000,0.000000,0.000000,0.000000,0.000000,3.000000,10.478748,0.000000,-0.000000,0.000000,0.004301,15411.057000
0.711718,0.000000,0.000000,0.526532,0.000000,0.000000,0.000000,0.000000,0.000000,3.000000,10.469230,0.000000,-0.000000,0.000000,0.004307,15718.294000
0.716021,0.000000,0.000000,0.531737,0.000000,0.000000,0.000000,0.000000,0.000000,3.000000,10.459770,0.000000,-0.000000,0.000000,0.004303,16021.345000
0.720327,0.000000,0.000000,0.536957,0.000000,0.000000,0.000000,0.000000,0.000000,3.000000,10.450354,0.000000,-0.000000,0.000000,0.004306,16327.415000
0.724619,0.000000,0.000000,0.542171,0.000000,0.000000,0.000000,0.000000,0.000000,3.000000,10.441017,0.000000,-0.000000,0.000000,0.004291,16618.763000
0.728929,0.000000,0.000000,0.547420,0.000000,0.000000,0.000000,0.000000,0.000000,3.000000,10.431688,0.000000,-0.000000,0.000000,0.004310,16928.685000
0.733249,0.000000,0.000000,0.552694,0.000000,0.000000,0.000000,0.000000,0.000000,3.000000,10.422386,0.000000,-0.000000,0.000000,0.004320,17248.977000
0.737575,0.000000,0.000000,0.557985,0.000000,0.000000,0.000000,0.000000,0.000000,3.000000,10.413121,0.000000,-0.000000,0.000000,0.004326,17574.510000
0.741876,0.000000,0.000000,0.563258,0.000000,0.000000,0.000000,0.000000,0.000000,3.000000,10.403957,0.000000,-0.000000,0.000000,0.004301,17875.635000
0.746163,0.000000,0.000000,0.568525,0.000000,0.000000,0.000000,0.000000,0.000000,3.000000,10.394871,0.000000,-0.000000,0.000000,0.004287,18162.946000
0.750450,0.000000,0.000000,0.573803,0.000000,0.000000,0.000000,0.000000,0.000000,3.000000,10.385832,0.000000,-0.000000,0.000000,0.004287,18450.108000
0.754739,0.000000,0.000000,0.579093,0.000000,0.000000,0.000000,0.000000,0.000000,3.000000,10.376837,0.000000,-0.000000,0.000000,0.004289,18738.937000
0.759028,0.000000,0.000000,0.584395,0.000000,0.000000,0.000000,0.000000,0.000000,3.000000,10.367887,0.000000,-0.000000,0.000000,0.004289,19028.174000
0.763338,0.000000,0.000000,0.589733,0.000000,0.000000,0.000000,0.000000,0.000000,3.000000,10.358943,0.000000,-0.000000,0.000000,0.004310,19338.355000
0.767619,0.000000,0.000000,0.595044,0.000000,0.000000,0.000000,0.000000,0.000000,3.000000,10.350107,0.000000,-0.000000,0.000000,0.004280,19618.591000
0.771897,0.000000,0.000000,0.600363,0.000000,0.000000,0.000000,0.000000,0.000000,3.000000,10.341322,0.000000,-0.000000,0.000000,0.004278,19896.883000
0.776184,0.000000,0.000000,0.605703,0.000000,0.000000,0.000000,0.000000,0.000000,3.000000,10.332565,0.000000,-0.000000,0.000000,0.004287,20184.120000
0.780456,0.000000,0.000000,0.611034,0.000000,0.000000,0.000000,0.000000,0.000000,3.000000,10.323887,0.000000,-0.000000,0.000000,0.004272,20455.986000
0.784726,0.000000,0.000000,0.616372,0.000000,0.000000,0.000000,0.000000,0.000000,3.000000,10.315257,0.000000,-0.000000,0.000000,0.004270,20726.148000
0.789016,0.000000,0.000000,0.621744,0.000000,0.000000,0.000000,0.000000,0.000000,3.000000,10.306634,0.000000,-0.000000,0.000000,0.004290,21016.070000
0.793293,0.000000,0.000000,0.627109,0.000000,0.000000,0.000000,0.000000,0.000000,3.000000,10.298081,0.000000,-0.000000,0.000000,0.004277,21293.436000
0.797580,0.000000,0.000000,0.632496,0.000000,0.000000,0.000000,0.000000,0.000000,3.000000,10.289557,0.000000,-0.000000,0.000000,0.004287,21580.376000
0.801887,0.000000,0.000000,0.637916,0.000000,0.000000,0.000000,0.000000,0.000000,3.000000,10.281038,0.000000,-0.000000,0.000000,0.004306,21886.798000
0.806177,0.000000,0.000000,0.643325,0.000000,0.000000,0.000000,0.000000,0.000000,3.000000,10.272598,0.000000,-0.000000,0.000000,0.004290,22177.219000
0.810486,0.000000,0.000000,0.648766,0.000000,0.000000,0.000000,0.000000,0.000000,3.000000,10.264168,0.000000,-0.000000,0.000000,0.004308,22485.697000
0.814780,0.000000,0.000000,0.654197,0.000000,0.000000,0.000000,0.000000,0.000000,3.000000,10.255812,0.000000,-0.000000,0.000000,0.004294,22780.063000
0.819065,0.000000,0.000000,0.659624,0.000000,0.000000,0.000000,0.000000,0.000000,3.000000,10.247519,0.000000,-0.000000,0.000000,0.004285,23064.966000
0.823360,0.000000,0.000000,0.665072,0.000000,0.000000,0.000000,0.000000,0.000000,3.000000,10.239252,0.000000,-0.000000,0.000000,0.004295,23359.610000
0.827654,0.000000,0.000000,0.670528,0.000000,0.000000,0.000000,0.000000,0.000000,3.000000,10.231031,0.000000,-0.000000,0.000000,0.004294,23653.921000
0.831923,0.000000,0.000000,0.675960,0.000000,0.000000,0.000000,0.000000,0.000000,3.000000,10.222904,0.000000,-0.000000,0.000000,0.004269,23922.879000
0.836200,0.000000,0.000000,0.681409,0.000000,0.000000,0.000000,0.000000,0.000000,3.000000,10.214806,0.000000,-0.000000,0.000000,0.004277,24199.949000
0.840483,0.000000,0.000000,0.686874,0.000000,0.000000,0.000000,0.000000,0.000000,3.000000,10.206739,0.000000,-0.000000,0.000000,0.004283,24483.223000
0.844753,0.000000,0.000000,0.692329,0.000000,0.000000,0.000000,0.000000,0.000000,3.000000,10.198744,0.000000,-0.000000,0.000000,0.004270,24752.848000
0.849063,0.000000,0.000000,0.697843,0.000000,0.000000,0.000000,0.000000,0.000000,3.000000,10.190716,0.000000,-0.000000,0.000000,0.004311,25063.436000
0.853385,0.000000,0.000000,0.703379,0.000000,0.000000,0.000000,0.000000,0.000000,3.000000,10.182713,0.000000,-0.000000,0.000000,0.004322,25385.154000
0.857663,0.000000,0.000000,0.708866,0.000000,0.000000,0.000000,0.000000,0.000000,3.000000,10.174833,0.000000,-0.000000,0.000000,0.004278,25662.946000
0.861959,0.000000,0.000000,0.714383,0.000000,0.000000,0.000000,0.000000,0.000000,3.000000,10.166965,0.000000,-0.000000,0.000000,0.004296,25959.220000
0.866285,0.000000,0.000000,0.719945,0.000000,0.000000,0.000000,0.000000,0.000000,3.000000,10.159087,0.000000,-0.000000,0.000000,0.004326,26284.919000
0.870585,0.000000,0.000000,0.725481,0.000000,0.000000,0.000000,0.000000,0.000000,3.000000,10.151299,0.000000,-0.000000,0.000000,0.004300,26585.323000
0.874899,0.000000,0.000000,0.731040,0.000000,0.000000,0.000000,0.000000,0.000000,3.000000,10.143532,0.000000,-0.000000,0.000000,0.004314,26899.078000
0.879158,0.000000,0.000000,0.736536,0.000000,0.000000,0.000000,0.000000,0.000000,3.000000,10.135905,0.000000,-0.000000,0.000000,0.004259,27158.129000
0.883488,0.000000,0.000000,0.742129,0.000000,0.000000,0.000000,0.000000,0.000000,3.000000,10.128196,0.000000,-0.000000,0.000000,0.004330,27487.958000
0.887777,0.000000,0.000000,0.747675,0.000000,0.000000,0.000000,0.000000,0.000000,3.000000,10.120602,0.000000,-0.000000,0.000000,0.004289,27777.343000
0.892109,0.000000,0.000000,0.753283,0.000000,0.000000,0.000000,0.000000,0.000000,3.000000,10.112976,0.000000,-0.000000,0.000000,0.004332,28109.413000
0.896379,0.000000,0.000000,0.758815,0.000000,0.000000,0.000000,0.000000,0.000000,3.000000,10.105504,0.000000,-0.000000,0.000000,0.004269,28378.594000
0.900651,0.000000,0.000000,0.764357,0.000000,0.000000,0.000000,0.000000,0.000000,3.000000,10.098068,0.000000,-0.000000,0.000000,0.004272,28650.719000
0.904929,0.000000,0.000000,0.769911,0.000000,0.000000,0.000000,0.000000,0.000000,3.000000,10.090666,0.000000,-0.000000,0.000000,0.004278,28928.881000
0.909221,0.000000,0.000000,0.775490,0.000000,0.000000,0.000000,0.000000,0.000000,3.000000,10.083280,0.000000,-0.000000,0.000000,0.004292,29221.118000
0.913525,0.000000,0.000000,0.781088,0.000000,0.000000,0.000000,0.000000,0.000000,3.000000,10.075918,0.000000,-0.000000,0.000000,0.004304,29524.743000
0.917802,0.000000,0.000000,0.786657,0.000000,0.000000,0.000000,0.000000,0.000000,3.000000,10.068643,0.000000,-0.000000,0.000000,0.004277,29801.850000
0.922077,0.000000,0.000000,0.792228,0.000000,0.000000,0.000000,0.000000,0.000000,3.000000,10.061413,0.000000,-0.000000,0.000000,0.004276,30077.364000
0.926368,0.000000,0.000000,0.797824,0.000000,0.000000,0.000000,0.000000,0.000000,3.000000,10.054199,0.000000,-0.000000,0.000000,0.004290,30367.564000
0.930673,0.000000,0.000000,0.803444,0.000000,0.000000,0.000000,0.000000,0.000000,3.000000,10.047002,0.000000,-0.000000,0.000000,0.004306,30673.412000
0.934976,0.000000,0.000000,0.809065,0.000000,0.000000,0.000000,0.000000,0.000000,3.000000,10.039852,0.000000,-0.000000,0.000000,0.004302,30975.685000
0.939261,0.000000,0.000000,0.814667,0.000000,0.000000,0.000000,0.000000,0.000000,3.000000,10.032772,0.000000,-0.000000,0.000000,0.004285,31260.755000
0.943554,0.000000,0.000000,0.820284,0.000000,0.000000,0.000000,0.000000,0.000000,3.000000,10.025720,0.000000,-0.000000,0.000000,0.004293,31554.251000
0.947917,0.000000,0.000000,0.825997,0.000000,0.000000,0.000000,0.000000,0.000000,3.000000,10.018596,0.000000,-0.000000,0.000000,0.004363,31917.006000
0.952194,0.000000,0.000000,0.831600,0.000000,0.000000,0.000000,0.000000,0.000000,3.000000,10.011654,0.000000,-0.000000,0.000000,0.004277,32193.576000
0.956466,0.000000,0.000000,0.837202,0.000000,0.000000,0.000000,0.000000,0.000000,3.000000,10.004761,0.000000,-0.000000,0.000000,0.004272,32465.923000
0.960753,0.000000,0.000000,0.842827,0.000000,0.000000,0.000000,0.000000,0.000000,3.000000,9.997883,0.000000,-0.000000,0.000000,0.004287,32753.197000
0.965041,0.000000,0.000000,0.848456,0.000000,0.000000,0.000000,0.000000,0.000000,3.000000,9.991045,0.000000,-0.000000,0.000000,0.004288,33040.859000
0.969318,0.000000,0.000000,0.854075,0.000000,0.000000,0.000000,0.000000,0.000000,3.000000,9.984264,0.000000,-0.000000,0.000000,0.004278,33318.373000
0.973624,0.000000,0.000000,0.859735,0.000000,0.000000,0.000000,0.000000,0.000000,3.000000,9.977480,0.000000,-0.000000,0.000000,0.004306,33624.240000
0.977912,0.000000,0.000000,0.865374,0.000000,0.000000,0.000000,0.000000,0.000000,3.000000,9.970763,0.000000,-0.000000,0.000000,0.004288,33912.050000
0.982182,0.000000,0.000000,0.870993,0.000000,0.000000,0.000000,0.000000,0.000000,3.000000,9.964115,0.000000,-0.000000,0.000000,0.004270,34181.639000
0.986498,0.000000,0.000000,0.876675,0.000000,0.000000,0.000000,0.000000,0.000000,3.000000,9.957435,0.000000,-0.000000,0.000000,0.004316,34497.542000
0.990794,0.000000,0.000000,0.882334,0.000000,0.000000,0.000000,0.000000,0.000000,3.000000,9.950826,0.000000,-0.000000,0.000000,0.004296,34793.593000
0.995114,0.000000,0.000000,0.888028,0.000000,0.000000,0.000000,0.000000,0.000000,3.000000,9.944220,0.000000,-0.000000,0.000000,0.004320,35114.015000
0.999406,0.000000,0.000000,0.893687,0.000000,0.000000,0.000000,0.000000,0.000000,3.000000,9.937696,0.000000,-0.000000,0.000000,0.004292,35405.955000
1.003722,0.000000,0.000000,0.899379,0.000000,0.000000,0.000000,0.000000,0.000000,3.000000,9.931177,0.000000,-0.000000,0.000000,0.004316,35721.599000
1.008020,0.000000,0.000000,0.905051,0.000000,0.000000,0.000000,0.000000,0.000000,3.000000,9.924724,0.000000,-0.000000,0.000000,0.004298,36019.576000
1.012316,0.000000,0.000000,0.910724,0.000000,0.000000,0.000000,0.000000,0.000000,3.000000,9.918312,0.000000,-0.000000,0.000000,0.004297,36316.480000
1.016614,0.000000,0.000000,0.916399,0.000000,0.000000,0.000000,0.000000,0.000000,3.000000,9.911939,0.000000,-0.000000,0.000000,0.004297,36613.864000
1.020896,0.000000,0.000000,0.922056,0.000000,0.000000,0.000000,0.000000,0.000000,3.000000,9.905626,0.000000,-0.000000,0.000000,0.004282,36895.971000
1.025273,0.000000,0.000000,0.927841,0.000000,0.000000,0.000000,0.000000,0.000000,3.000000,9.899214,0.000000,-0.000000,0.000000,0.004377,37272.930000
1.029663,0.000000,0.000000,0.933644,0.000000,0.000000,0.000000,0.000000,0.000000,3.000000,9.892822,0.000000,-0.000000,0.000000,0.004390,37663.259000
1.033965,0.000000,0.000000,0.939333,0.000000,0.000000,0.000000,0.000000,0.000000,3.000000,9.886600,0.000000,-0.000000,0.000000,0.004302,37965.126000
1.038273,0.000000,0.000000,0.945031,0.000000,0.000000,0.000000,0.000000,0.000000,3.000000,9.880407,0.000000,-0.000000,0.000000,0.004308,38272.751000
1.042589,0.000000,0.000000,0.950742,0.000000,0.000000,0.000000,0.000000,0.000000,3.000000,9.874240,0.000000,-0.000000,0.000000,0.004317,38589.451000
1.046879,0.000000,0.000000,0.956419,0.000000,0.000000,0.000000,0.000000,0.000000,3.000000,9.868150,0.000000,-0.000000,0.000000,0.004290,38879.169000
1.051190,0.000000,0.000000,0.962124,0.000000,0.000000,0.000000,0.000000,0.000000,3.000000,9.862068,0.000000,-0.000000,0.000000,0.004311,39189.776000
1.055483,0.000000,0.000000,0.967808,0.000000,0.000000,0.000000,0.000000,0.000000,3.000000,9.856049,0.000000,-0.000000,0.000000,0.004294,39483.290000
1.059811,0.000000,0.000000,0.973538,0.000000,0.000000,0.000000,0.000000,0.000000,3.000000,9.850019,0.000000,-0.000000,0.000000,0.004327,39810.656000
1.064102,0.000000,0.000000,0.979222,0.000000,0.000000,0.000000,0.000000,0.000000,3.000000,9.844078,0.000000,-0.000000,0.000000,0.004292,40102.485000
1.068411,0.000000,0.000000,0.984929,0.000000,0.000000,0.000000,0.000000,0.000000,3.000000,9.838151,0.000000,-0.000000,0.000000,0.004309,40411.425000
1.072751,0.000000,0.000000,0.990678,0.000000,0.000000,0.000000,0.000000,0.000000,3.000000,9.832219,0.000000,-0.000000,0.000000,0.004340,40751.273000
1.077045,0.000000,0.000000,0.996366,0.000000,0.000000,0.000000,0.000000,0.000000,3.000000,9.826387,0.000000,-0.000000,0.000000,0.004294,41045.491000
1.081322,0.000000,0.000000,1.002032,0.000000,0.000000,0.000000,0.000000,0.000000,3.000000,9.820617,0.000000,-0.000000,0.000000,0.004276,41321.987000
1.085612,0.000000,0.000000,1.007716,0.000000,0.000000,0.000000,0.000000,0.000000,3.000000,9.814864,0.000000,-0.000000,0.000000,0.004290,41612.446000
1.089895,0.000000,0.000000,1.013391,0.000000,0.000000,0.000000,0.000000,0.000000,3.000000,9.809158,0.000000,-0.000000,0.000000,0.004283,41894.960000
1.094182,0.000000,0.000000,1.019071,0.000000,0.000000,0.000000,0.000000,0.000000,3.000000,9.803483,0.000000,-0.000000,0.000000,0.004287,42182.419000
1.098493,0.000000,0.000000,1.024782,0.000000,0.000000,0.000000,0.000000,0.000000,3.000000,9.797814,0.000000,-0.000000,0.000000,0.004310,42492.581000
1.102797,0.000000,0.000000,1.030485,0.000000,0.000000,0.000000,0.000000,0.000000,3.000000,9.792191,0.000000,-0.000000,0.000000,0.004304,42796.503000
1.107103,0.000000,0.000000,1.036190,0.000000,0.000000,0.000000,0.000000,0.000000,3.000000,9.786600,0.000000,-0.000000,0.000000,0.004307,43103.110000
1.111396,0.000000,0.000000,1.041877,0.000000,0.000000,0.000000,0.000000,0.000000,3.000000,9.781064,0.000000,-0.000000,0.000000,0.004292,43395.606000
1.115670,0.000000,0.000000,1.047540,0.000000,0.000000,0.000000,0.000000,0.000000,3.000000,9.775587,0.000000,-0.000000,0.000000,0.004275,43670.361000
1.119954,0.000000,0.000000,1.053214,0.000000,0.000000,0.000000,0.000000,0.000000,3.000000,9.770134,0.000000,-0.000000,0.000000,0.004284,43954.171000
1.124261,0.000000,0.000000,1.058918,0.000000,0.000000,0.000000,0.000000,0.000000,3.000000,9.764687,0.000000,-0.000000,0.000000,0.004307,44261.259000
1.128554,0.000000,0.000000,1.064603,0.000000,0.000000,0.000000,0.000000,0.000000,3.000000,9.759294,0.000000,-0.000000,0.000000,0.004293,44554.200000
1.132838,0.000000,0.000000,1.070276,0.000000,0.000000,0.000000,0.000000,0.000000,3.000000,9.753947,0.000000,-0.000000,0.000000,0.004284,44838.103000
1.137150,0.000000,0.000000,1.075984,0.000000,0.000000,0.000000,0.000000,0.000000,3.000000,9.748602,0.000000,-0.000000,0.000000,0.004312,45149.988000
1.141500,0.000000,0.000000,1.081742,0.000000,0.000000,0.000000,0.000000,0.000000,3.000000,9.743244,0.000000,-0.000000,0.000000,0.004350,45500.150000
1.145773,0.000000,0.000000,1.087397,0.000000,0.000000,0.000000,0.000000,0.000000,3.000000,9.738018,0.000000,-0.000000,0.000000,0.004273,45773.053000
1.150056,0.000000,0.000000,1.093063,0.000000,0.000000,0.000000,0.000000,0.000000,3.000000,9.732814,0.000000,-0.000000,0.000000,0.004283,46055.845000
1.154320,0.000000,0.000000,1.098703,0.000000,0.000000,0.000000,0.000000,0.000000,3.000000,9.727668,0.000000,-0.000000,0.000000,0.004264,46319.582000
1.158613,0.000000,0.000000,1.104380,0.000000,0.000000,0.000000,0.000000,0.000000,3.000000,9.722521,0.000000,-0.000000,0.000000,0.004293,46612.540000
1.162879,0.000000,0.000000,1.110021,0.000000,0.000000,0.000000,0.000000,0.000000,3.000000,9.717440,0.000000,-0.000000,0.000000,0.004267,46879.221000
1.167152,0.000000,0.000000,1.115668,0.000000,0.000000,0.000000,0.000000,0.000000,3.000000,9.712386,0.000000,-0.000000,0.000000,0.004272,47151.643000
1.171437,0.000000,0.000000,1.121330,0.000000,0.000000,0.000000,0.000000,0.000000,3.000000,9.707351,0.000000,-0.000000,0.000000,0.004286,47437.305000
1.175721,0.000000,0.000000,1.126989,0.000000,0.000000,0.000000,0.000000,0.000000,3.000000,9.702352,0.000000,-0.000000,0.000000,0.004284,47721.097000
1.180003,0.000000,0.000000,1.132642,0.000000,0.000000,0.000000,0.000000,0.000000,3.000000,9.697390,0.000000,-0.000000,0.000000,0.004282,48002.723000
1.184286,0.000000,0.000000,1.138297,0.000000,0.000000,0.000000,0.000000,0.000000,3.000000,9.692459,0.000000,-0.000000,0.000000,0.004284,48286.367000
1.188573,0.000000,0.000000,1.143953,0.000000,0.000000,0.000000,0.000000,0.000000,3.000000,9.687558,0.000000,-0.000000,0.000000,0.004287,48573.325000
1.192849,0.000000,0.000000,1.149593,0.000000,0.000000,0.000000,0.000000,0.000000,3.000000,9.682704,0.000000,-0.000000,0.000000,0.004275,48848.784000
1.197137,0.000000,0.000000,1.155247,0.000000,0.000000,0.000000,0.000000,0.000000,3.000000,9.677869,0.000000,-0.000000,0.000000,0.004289,49137.465000
1.201481,0.000000,0.000000,1.160972,0.000000,0.000000,0.000000,0.000000,0.000000,3.000000,9.673005,0.000000,-0.000000,0.000000,0.004344,49481.257000
1.205786,0.000000,0.000000,1.166643,0.000000,0.000000,0.000000,0.000000,0.000000,3.000000,9.668219,0.000000,-0.000000,0.000000,0.004305,49786.031000
1.210095,0.000000,0.000000,1.172316,0.000000,0.000000,0.000000,0.000000,0.000000,3.000000,9.663462,0.000000,-0.000000,0.000000,0.004309,50094.619000
1.214387,0.000000,0.000000,1.177965,0.000000,0.000000,0.000000,0.000000,0.000000,3.000000,9.658755,0.000000,-0.000000,0.000000,0.004292,50386.874000
1.218684,0.000000,0.000000,1.183618,0.000000,0.000000,0.000000,0.000000,0.000000,3.000000,9.654078,0.000000,-0.000000,0.000000,0.004297,50683.777000
1.222968,0.000000,0.000000,1.189251,0.000000,0.000000,0.000000,0.000000,0.000000,3.000000,9.649446,0.000000,-0.000000,0.000000,0.004284,50968.181000
1.227269,0.000000,0.000000,1.194904,0.000000,0.000000,0.000000,0.000000,0.000000,3.000000,9.644830,0.000000,-0.000000,0.000000,0.004301,51269.121000
1.231539,0.000000,0.000000,1.200512,0.000000,0.000000,0.000000,0.000000,0.000000,3.000000,9.640280,0.000000,-0.000000,0.000000,0.004269,51538.616000
1.235856,0.000000,0.000000,1.206180,0.000000,0.000000,0.000000,0.000000,0.000000,3.000000,9.635711,0.000000,-0.000000,0.000000,0.004317,51856.038000
1.240241,0.000000,0.000000,1.211933,0.000000,0.000000,0.000000,0.000000,0.000000,3.000000,9.631104,0.000000,-0.000000,0.000000,0.004385,52240.868000
1.244642,0.000000,0.000000,1.217704,0.000000,0.000000,0.000000,0.000000,0.000000,3.000000,9.626513,0.000000,-0.000000,0.000000,0.004401,52642.253000
1.248960,0.000000,0.000000,1.223362,0.000000,0.000000,0.000000,0.000000,0.000000,3.000000,9.622044,0.000000,-0.000000,0.000000,0.004317,52959.545000
1.253288,0.000000,0.000000,1.229031,0.000000,0.000000,0.000000,0.000000,0.000000,3.000000,9.617596,0.000000,-0.000000,0.000000,0.004328,53287.652000
1.257583,0.000000,0.000000,1.234653,0.000000,0.000000,0.000000,0.000000,0.000000,3.000000,9.613213,0.000000,-0.000000,0.000000,0.004295,53583.055000
1.261931,0.000000,0.000000,1.240341,0.000000,0.000000,0.000000,0.000000,0.000000,3.000000,9.608809,0.000000,-0.000000,0.000000,0.004348,53931.125000
1.266248,0.000000,0.000000,1.245985,0.000000,0.000000,0.000000,0.000000,0.000000,3.000000,9.604467,0.000000,-0.000000,0.000000,0.004317,54248.399000
1.270533,0.000000,0.000000,1.251582,0.000000,0.000000,0.000000,0.000000,0.000000,3.000000,9.600191,0.000000,-0.000000,0.000000,0.004285,54533.246000
1.274837,0.000000,0.000000,1.257201,0.000000,0.000000,0.000000,0.000000,0.000000,3.000000,9.595927,0.000000,-0.000000,0.000000,0.004304,54837.298000
1.279118,0.000000,0.000000,1.262786,0.000000,0.000000,0.000000,0.000000,0.000000,3.000000,9.591717,0.000000,-0.000000,0.000000,0.004281,55118.386000
1.283397,0.000000,0.000000,1.268364,0.000000,0.000000,0.000000,0.000000,0.000000,3.000000,9.587540,0.000000,-0.000000,0.000000,0.004279,55397.233000
1.287671,0.000000,0.000000,1.273931,0.000000,0.000000,0.000000,0.000000,0.000000,3.000000,9.583399,0.000000,-0.000000,0.000000,0.004273,55670.544000
1.291997,0.000000,0.000000,1.279563,0.000000,0.000000,0.000000,0.000000,0.000000,3.000000,9.579237,0.000000,-0.000000,0.000000,0.004326,55996.707000
1.296306,0.000000,0.000000,1.285168,0.000000,0.000000,0.000000,0.000000,0.000000,3.000000,9.575124,0.000000,-0.000000,0.000000,0.004309,56305.702000
1.300605,0.000000,0.000000,1.290756,0.000000,0.000000,0.000000,0.000000,0.000000,3.000000,9.571050,0.000000,-0.000000,0.000000,0.004299,56605.032000
1.304887,0.000000,0.000000,1.296317,0.000000,0.000000,0.000000,0.000000,0.000000,3.000000,9.567024,0.000000,-0.000000,0.000000,0.004282,56886.601000
1.309154,0.000000,0.000000,1.301855,0.000000,0.000000,0.000000,0.000000,0.000000,3.000000,9.563042,0.000000,-0.000000,0.000000,0.004267,57153.634000
1.313449,0.000000,0.000000,1.307425,0.000000,0.000000,0.000000,0.000000,0.000000,3.000000,9.559063,0.000000,-0.000000,0.000000,0.004295,57449.111000
1.317722,0.000000,0.000000,1.312962,0.000000,0.000000,0.000000,0.000000,0.000000,3.000000,9.555134,0.000000,-0.000000,0.000000,0.004273,57722.255000
1.322058,0.000000,0.000000,1.318574,0.000000,0.000000,0.000000,0.000000,0.000000,3.000000,9.551179,0.000000,-0.000000,0.000000,0.004335,58057.547000
1.326382,0.000000,0.000000,1.324168,0.000000,0.000000,0.000000,0.000000,0.000000,3.000000,9.547264,0.000000,-0.000000,0.000000,0.004325,58382.432000
1.330719,0.000000,0.000000,1.329773,0.000000,0.000000,0.000000,0.000000,0.000000,3.000000,9.543368,0.000000,-0.000000,0.000000,0.004337,58719.039000
1.335093,0.000000,0.000000,1.335421,0.000000,0.000000,0.000000,0.000000,0.000000,3.000000,9.539470,0.000000,-0.000000,0.000000,0.004374,59093.294000
1.339420,0.000000,0.000000,1.341003,0.000000,0.000000,0.000000,0.000000,0.000000,3.000000,9.535644,0.000000,-0.000000,0.000000,0.004327,59420.438000
1.343692,0.000000,0.000000,1.346509,0.000000,0.000000,0.000000,0.000000,0.000000,3.000000,9.531897,0.000000,-0.000000,0.000000,0.004271,59691.545000
1.348006,0.000000,0.000000,1.352065,0.000000,0.000000,0.000000,0.000000,0.000000,3.000000,9.528140,0.000000,-0.000000,0.000000,0.004315,60006.282000
1.352295,0.000000,0.000000,1.357583,0.000000,0.000000,0.000000,0.000000,0.000000,3.000000,9.524435,0.000000,-0.000000,0.000000,0.004289,60295.463000
1.356592,0.000000,0.000000,1.363106,0.000000,0.000000,0.000000,0.000000,0.000000,3.000000,9.520753,0.000000,-0.000000,0.000000,0.004297,60592.236000
1.360886,0.000000,0.000000,1.368620,0.000000,0.000000,0.000000,0.000000,0.000000,3.000000,9.517102,0.000000,-0.000000,0.000000,0.004294,60886.269000
1.365193,0.000000,0.000000,1.374144,0.000000,0.000000,0.000000,0.000000,0.000000,3.000000,9.513470,0.000000,-0.000000,0.000000,0.004307,61192.969000
1.369472,0.000000,0.000000,1.379629,0.000000,0.000000,0.000000,0.000000,0.000000,3.000000,9.509889,0.000000,-0.000000,0.000000,0.004279,61472.279000
1.373751,0.000000,0.000000,1.385106,0.000000,0.000000,0.000000,0.000000,0.000000,3.000000,9.506337,0.000000,-0.000000,0.000000,0.004278,61750.627000
1.378063,0.000000,0.000000,1.390622,0.000000,0.000000,0.000000,0.000000,0.000000,3.000000,9.502786,0.000000,-0.000000,0.000000,0.004313,62063.234000
1.382348,0.000000,0.000000,1.396097,0.000000,0.000000,0.000000,0.000000,0.000000,3.000000,9.499285,0.000000,-0.000000,0.000000,0.004285,62347.970000
1.386680,0.000000,0.000000,1.401626,0.000000,0.000000,0.000000,0.000000,0.000000,3.000000,9.495775,0.000000,-0.000000,0.000000,0.004332,62679.577000
1.391001,0.000000,0.000000,1.407136,0.000000,0.000000,0.000000,0.000000,0.000000,3.000000,9.492302,0.000000,-0.000000,0.000000,0.004321,63000.943000
1.395296,0.000000,0.000000,1.412606,0.000000,0.000000,0.000000,0.000000,0.000000,3.000000,9.488878,0.000000,-0.000000,0.000000,0.004295,63295.754000
1.399585,0.000000,0.000000,1.418063,0.000000,0.000000,0.000000,0.000000,0.000000,3.000000,9.485487,0.000000,-0.000000,0.000000,0.004289,63584.750000
1.403878,0.000000,0.000000,1.423519,0.000000,0.000000,0.000000,0.000000,0.000000,3.000000,9.482121,0.000000,-0.000000,0.000000,0.004293,63877.616000
1.408164,0.000000,0.000000,1.428961,0.000000,0.000000,0.000000,0.000000,0.000000,3.000000,9.478787,0.000000,-0.000000,0.000000,0.004286,64163.686000
1.412440,0.000000,0.000000,1.434384,0.000000,0.000000,0.000000,0.000000,0.000000,3.000000,9.475489,0.000000,-0.000000,0.000000,0.004276,64440.089000
1.416724,0.000000,0.000000,1.439810,0.000000,0.000000,0.000000,0.000000,0.000000,3.000000,9.472212,0.000000,-0.000000,0.000000,0.004283,64723.566000
1.421040,0.000000,0.000000,1.445272,0.000000,0.000000,0.000000,0.000000,0.000000,3.000000,9.468937,0.000000,-0.000000,0.000000,0.004317,65040.284000
1.425379,0.000000,0.000000,1.450756,0.000000,0.000000,0.000000,0.000000,0.000000,3.000000,9.465673,0.000000,-0.000000,0.000000,0.004339,65378.984000
1.429687,0.000000,0.000000,1.456194,0.000000,0.000000,0.000000,0.000000,0.000000,3.000000,9.462460,0.000000,-0.000000,0.000000,0.004308,65687.220000
1.434043,0.000000,0.000000,1.461687,0.000000,0.000000,0.000000,0.000000,0.000000,3.000000,9.459238,0.000000,-0.000000,0.000000,0.004356,66043.476000
1.438318,0.000000,0.000000,1.467070,0.000000,0.000000,0.000000,0.000000,0.000000,3.000000,9.456104,0.000000,-0.000000,0.000000,0.004274,66317.897000
1.442594,0.000000,0.000000,1.472449,0.000000,0.000000,0.000000,0.000000,0.000000,3.000000,9.452995,0.000000,-0.000000,0.000000,0.004276,66594.097000
1.446922,0.000000,0.000000,1.477887,0.000000,0.000000,0.000000,0.000000,0.000000,3.000000,9.449875,0.000000,-0.000000,0.000000,0.004328,66922.463000
1.451263,0.000000,0.000000,1.483334,0.000000,0.000000,0.000000,0.000000,0.000000,3.000000,9.446773,0.000000,-0.000000,0.000000,0.004341,67263.163000
1.455565,0.000000,0.000000,1.488726,0.000000,0.000000,0.000000,0.000000,0.000000,3.000000,9.443726,0.000000,-0.000000,0.000000,0.004302,67565.140000
1.459885,0.000000,0.000000,1.494132,0.000000,0.000000,0.000000,0.000000,0.000000,3.000000,9.440692,0.000000,-0.000000,0.000000,0.004319,67884.506000
1.464166,0.000000,0.000000,1.499485,0.000000,0.000000,0.000000,0.000000,0.000000,3.000000,9.437711,0.000000,-0.000000,0.000000,0.004282,68166.483000
1.468447,0.000000,0.000000,1.504829,0.000000,0.000000,0.000000,0.000000,0.000000,3.000000,9.434757,0.000000,-0.000000,0.000000,0.004280,68446.664000
1.471375,0.000000,0.000000,1.508481,0.000000,0.000000,0.000000,0.000000,0.000000,3.000000,9.432754,0.000000,-0.000000,0.000000,0.002929,67375.285000
1.474302,0.000000,0.000000,1.512127,0.000000,0.000000,0.000000,0.000000,0.000000,3.000000,9.430763,0.000000,-0.000000,0.000000,0.002927,66301.961000
1.477235,0.000000,0.000000,1.515778,0.000000,0.000000,0.000000,0.000000,0.000000,3.000000,9.428782,0.000000,-0.000000,0.000000,0.002933,65234.749000
1.480166,0.000000,0.000000,1.519423,0.000000,0.000000,0.000000,0.000000,0.000000,3.000000,9.426812,0.000000,-0.000000,0.000000,0.002932,64166.314000
1.483097,0.000000,0.000000,1.523064,0.000000,0.000000,0.000000,0.000000,0.000000,3.000000,9.424855,0.000000,-0.000000,0.000000,0.002930,63096.806000
1.486028,0.000000,0.000000,1.526704,0.000000,0.000000,0.000000,0.000000,0.000000,3.000000,9.422910,0.000000,-0.000000,0.000000,0.002932,62028.482000
1.488959,0.000000,0.000000,1.530339,0.000000,0.000000,0.000000,0.000000,0.000000,3.000000,9.420977,0.000000,-0.000000,0.000000,0.002931,60959.344000
1.491889,0.000000,0.000000,1.533969,0.000000,0.000000,0.000000,0.000000,0.000000,3.000000,9.419056,0.000000,-0.000000,0.000000,0.002929,59888.798000
1.494820,0.000000,0.000000,1.537598,0.000000,0.000000,0.000000,0.000000,0.000000,3.000000,9.417146,0.000000,-0.000000,0.000000,0.002931,58819.937000
1.497768,0.000000,0.000000,1.541243,0.000000,0.000000,0.000000,0.000000,0.000000,3.000000,9.415237,0.000000,-0.000000,0.000000,0.002948,57767.725000
1.500704,0.000000,0.000000,1.544872,0.000000,0.000000,0.000000,0.000000,0.000000,3.000000,9.413347,0.000000,-0.000000,0.000000,0.002936,56704.160000
1.503639,0.000000,0.000000,1.548495,0.000000,0.000000,0.000000,0.000000,0.000000,3.000000,9.411470,0.000000,-0.000000,0.000000,0.002935,55639.300000
1.506567,0.000000,0.000000,1.552107,0.000000,0.000000,0.000000,0.000000,0.000000,3.000000,9.409610,0.000000,-0.000000,0.000000,0.002928,54567.347000
1.509498,0.000000,0.000000,1.555718,0.000000,0.000000,0.000000,0.000000,0.000000,3.000000,9.407758,0.000000,-0.000000,0.000000,0.002931,53498.412000
1.512426,0.000000,0.000000,1.559323,0.000000,0.000000,0.000000,0.000000,0.000000,3.000000,9.405920,0.000000,-0.000000,0.000000,0.002928,52426.311000
1.515356,0.000000,0.000000,1.562926,0.000000,0.000000,0.000000,0.000000,0.000000,3.000000,9.404093,0.000000,-0.000000,0.000000,0.002930,51355.857000
1.518288,0.000000,0.000000,1.566529,0.000000,0.000000,0.000000,0.000000,0.000000,3.000000,9.402275,0.000000,-0.000000,0.000000,0.002932,50288.349000
1.521221,0.000000,0.000000,1.570128,0.000000,0.000000,0.000000,0.000000,0.000000,3.000000,9.400470,0.000000,-0.000000,0.000000,0.002933,49220.951000
1.524179,0.000000,0.000000,1.573755,0.000000,0.000000,0.000000,0.000000,0.000000,3.000000,9.398660,0.000000,-0.000000,0.000000,0.002958,48178.887000
1.527123,0.000000,0.000000,1.577363,0.000000,0.000000,0.000000,0.000000,0.000000,3.000000,9.396869,0.000000,-0.000000,0.000000,0.002944,47123.341000
1.530057,0.000000,0.000000,1.580953,0.000000,0.000000,0.000000,0.000000,0.000000,3.000000,9.395097,0.000000,-0.000000,0.000000,0.002934,46057.110000
1.532991,0.000000,0.000000,1.584541,0.000000,0.000000,0.000000,0.000000,0.000000,3.000000,9.393335,0.000000,-0.000000,0.000000,0.002934,44991.435000
1.535937,0.000000,0.000000,1.588138,0.000000,0.000000,0.000000,0.000000,0.000000,3.000000,9.391579,0.000000,-0.000000,0.000000,0.002946,43937.111000
1.538875,0.000000,0.000000,1.591723,0.000000,0.000000,0.000000,0.000000,0.000000,3.000000,9.389837,0.000000,-0.000000,0.000000,0.002938,42874.750000
1.541806,0.000000,0.000000,1.595296,0.000000,0.000000,0.000000,0.000000,0.000000,3.000000,9.388112,0.000000,-0.000000,0.000000,0.002931,41805.816000
1.544736,0.000000,0.000000,1.598864,0.000000,0.000000,0.000000,0.000000,0.000000,3.000000,9.386398,0.000000,-0.000000,0.000000,0.002930,40735.751000
1.547663,0.000000,0.000000,1.602424,0.000000,0.000000,0.000000,0.000000,0.000000,3.000000,9.384697,0.000000,-0.000000,0.000000,0.002927,39662.872000
1.550589,0.000000,0.000000,1.605980,0.000000,0.000000,0.000000,0.000000,0.000000,3.000000,9.383008,0.000000,-0.000000,0.000000,0.002926,38588.938000
1.553514,0.000000,0.000000,1.609532,0.000000,0.000000,0.000000,0.000000,0.000000,3.000000,9.381330,0.000000,-0.000000,0.000000,0.002925,37514.318000
1.556444,0.000000,0.000000,1.613084,0.000000,0.000000,0.000000,0.000000,0.000000,3.000000,9.379662,0.000000,-0.000000,0.000000,0.002929,36443.513000
1.559374,0.000000,0.000000,1.616635,0.000000,0.000000,0.000000,0.000000,0.000000,3.000000,9.378002,0.000000,-0.000000,0.000000,0.002931,35374.133000
1.562303,0.000000,0.000000,1.620179,0.000000,0.000000,0.000000,0.000000,0.000000,3.000000,9.376356,0.000000,-0.000000,0.000000,0.002929,34302.977000
1.565235,0.000000,0.000000,1.623723,0.000000,0.000000,0.000000,0.000000,0.000000,3.000000,9.374719,0.000000,-0.000000,0.000000,0.002932,33234.597000
1.568167,0.000000,0.000000,1.627265,0.000000,0.000000,0.000000,0.000000,0.000000,3.000000,9.373092,0.000000,-0.000000,0.000000,0.002932,32166.811000
1.571097,0.000000,0.000000,1.630800,0.000000,0.000000,0.000000,0.000000,0.000000,3.000000,9.371477,0.000000,-0.000000,0.000000,0.002930,31097.265000
1.574026,0.000000,0.000000,1.634329,0.000000,0.000000,0.000000,0.000000,0.000000,3.000000,9.369874,0.000000,-0.000000,0.000000,0.002928,30025.516000
1.576954,0.000000,0.000000,1.637854,0.000000,0.000000,0.000000,0.000000,0.000000,3.000000,9.368282,0.000000,-0.000000,0.000000,0.002928,28953.970000
1.579884,0.000000,0.000000,1.641378,0.000000,0.000000,0.000000,0.000000,0.000000,3.000000,9.366700,0.000000,-0.000000,0.000000,0.002930,27883.757000
1.582818,0.000000,0.000000,1.644903,0.000000,0.000000,0.000000,0.000000,0.000000,3.000000,9.365126,0.000000,-0.000000,0.000000,0.002935,26818.323000
1.585745,0.000000,0.000000,1.648416,0.000000,0.000000,0.000000,0.000000,0.000000,3.000000,9.363567,0.000000,-0.000000,0.000000,0.002927,25745.443000
1.588671,0.000000,0.000000,1.651922,0.000000,0.000000,0.000000,0.000000,0.000000,3.000000,9.362020,0.000000,-0.000000,0.000000,0.002925,24670.916000
1.591625,0.000000,0.000000,1.655459,0.000000,0.000000,0.000000,0.000000,0.000000,3.000000,9.360467,0.000000,-0.000000,0.000000,0.002954,23624.722000
1.594559,0.000000,0.000000,1.658969,0.000000,0.000000,0.000000,0.000000,0.000000,3.000000,9.358936,0.000000,-0.000000,0.000000,0.002934,22558.973000
1.597491,0.000000,0.000000,1.662472,0.000000,0.000000,0.000000,0.000000,0.000000,3.000000,9.357417,0.000000,-0.000000,0.000000,0.002932,21491.186000
1.600426,0.000000,0.000000,1.665974,0.000000,0.000000,0.000000,0.000000,0.000000,3.000000,9.355907,0.000000,-0.000000,0.000000,0.002935,20426.140000
1.603383,0.000000,0.000000,1.669499,0.000000,0.000000,0.000000,0.000000,0.000000,3.000000,9.354397,0.000000,-0.000000,0.000000,0.002956,19382.539000
1.606310,0.000000,0.000000,1.672984,0.000000,0.000000,0.000000,0.000000,0.000000,3.000000,9.352911,0.000000,-0.000000,0.000000,0.002927,18309.864000
1.609239,0.000000,0.000000,1.676468,0.000000,0.000000,0.000000,0.000000,0.000000,3.000000,9.351436,0.000000,-0.000000,0.000000,0.002929,17239.077000
1.612165,0.000000,0.000000,1.679945,0.000000,0.000000,0.000000,0.000000,0.000000,3.000000,9.349972,0.000000,-0.000000,0.000000,0.002926,16164.976000
1.615095,0.000000,0.000000,1.683422,0.000000,0.000000,0.000000,0.000000,0.000000,3.000000,9.348516,0.000000,-0.000000,0.000000,0.002930,15095.134000
1.618027,0.000000,0.000000,1.686897,0.000000,0.000000,0.000000,0.000000,0.000000,3.000000,9.347071,0.000000,-0.000000,0.000000,0.002932,14026.884000
1.620957,0.000000,0.000000,1.690366,0.000000,0.000000,0.000000,0.000000,0.000000,3.000000,9.345636,0.000000,-0.000000,0.000000,0.002930,12956.764000
